{
"01001": {"id": "ENJA", "name": "JAN MAYEN", "state": "NO", "lat":  70.930, "lon":    8.670, "elev": 9},
"01004": {"id": "ENAS", "name": "NY-ALESUND II", "state": "NO", "lat":  78.920, "lon":   11.930, "elev": 8},
"01007": {"id": "", "name": "NY-ALESUND", "state": "NO", "lat":  78.920, "lon":   11.930, "elev": 18},
"01008": {"id": "ENSB", "name": "SVALBARD/LONGYE", "state": "NO", "lat":  78.250, "lon":   15.470, "elev": 29},
"01010": {"id": "ENAN", "name": "ANDOYA", "state": "NO", "lat":  69.300, "lon":   16.150, "elev": 14},
"01011": {"id": "", "name": "KVITOYA", "state": "NO", "lat":  80.100, "lon":   31.400, "elev": 16},
"01025": {"id": "ENTC", "name": "TROMSOE", "state": "NO", "lat":  69.680, "lon":   18.920, "elev": 10},
"01028": {"id": "ENBJ", "name": "BJORNOYA ISLAND", "state": "NO", "lat":  74.520, "lon":   19.020, "elev": 14},
"01088": {"id": "ENVD", "name": "VADSO", "state": "NO", "lat":  70.070, "lon":   29.850, "elev": 39},
"01152": {"id": "ENBO", "name": "BODO VI (CIV/MIL)", "state": "NO", "lat":  67.250, "lon":   14.370, "elev": 13},
"01240": {"id": "", "name": "HALTEN", "state": "NO", "lat":  64.170, "lon":    9.420, "elev": 16},
"01241": {"id": "ENOL", "name": "ORLAND III (NOR-AFB)", "state": "NO", "lat":  63.700, "lon":    9.600, "elev": 7},
"01384": {"id": "ENGM", "name": "OSLO/GARDERMOEN", "state": "NO", "lat":  60.200, "lon":   11.080, "elev": 204},
"01400": {"id": "ENEK", "name": "EKOFISK", "state": "NO", "lat":  56.530, "lon":    3.220, "elev": 46},
"01415": {"id": "ENZV", "name": "STAVANGER/SOLA (AFB)", "state": "NO", "lat":  58.880, "lon":    5.630, "elev": 9},
"01465": {"id": "", "name": "TORUNGEN", "state": "NO", "lat":  58.400, "lon":    8.800, "elev": 15},
"01492": {"id": "", "name": "OSLO/BLINDERN", "state": "NO", "lat":  59.570, "lon":   10.430, "elev": 96},
"02120": {"id": "", "name": "KVIKKJOKK", "state": "SW", "lat":  66.950, "lon":   17.750, "elev": 337},
"02185": {"id": "ESPA", "name": "LULEA/KALLAX (AFB)", "state": "SW", "lat":  65.550, "lon":   22.130, "elev": 34},
"02188": {"id": "", "name": "RODKALLEN", "state": "SW", "lat":  65.320, "lon":   22.380, "elev": 1},
"02225": {"id": "", "name": "OSTERSUND/FROSON", "state": "SW", "lat":  63.180, "lon":   14.500, "elev": 370},
"02365": {"id": "ESNN", "name": "SUNDSVALL/HARNOSAND", "state": "SW", "lat":  62.530, "lon":   17.470, "elev": 6},
"02527": {"id": "ESGG", "name": "GOTEBORG/LANDVETTER", "state": "SW", "lat":  57.670, "lon":   12.500, "elev": 164},
"02591": {"id": "ESQV", "name": "VISBY AERO STATION", "state": "SW", "lat":  57.650, "lon":   18.350, "elev": 47},
"02836": {"id": "EFSO", "name": "SODANKYLA", "state": "FI", "lat":  67.370, "lon":   26.650, "elev": 179},
"02935": {"id": "EFJY", "name": "JYVASKYLA (MIL/CIV)", "state": "FI", "lat":  62.400, "lon":   25.680, "elev": 145},
"02963": {"id": "", "name": "JOKIOINEN", "state": "FI", "lat":  60.820, "lon":   23.500, "elev": 103},
"02982": {"id": "", "name": "RUSSARO", "state": "FI", "lat":  59.770, "lon":   22.950, "elev": 11},
"03001": {"id": "", "name": "MUCKLE FLUGGA (LH)", "state": "UK", "lat":  60.850, "lon":    0.880, "elev": 53},
"03005": {"id": "", "name": "LERWICK/SHETLAND IS", "state": "UK", "lat":  60.130, "lon":    1.180, "elev": 84},
"03008": {"id": "", "name": "FAIR ISLE", "state": "UK", "lat":  59.530, "lon":    1.630, "elev": 59},
"03023": {"id": "", "name": "WEST GEIRINISH", "state": "UK", "lat":  57.350, "lon":    7.370, "elev": 3},
"03026": {"id": "EGPO", "name": "STORNOWAY", "state": "UK", "lat":  58.220, "lon":    6.320, "elev": 13},
"03066": {"id": "EGQK", "name": "KINLOSS RAF", "state": "UK", "lat":  57.650, "lon":    3.570, "elev": 7},
"03085": {"id": "", "name": "INCHMARLO", "state": "UK", "lat":  57.070, "lon":    2.530, "elev": 80},
"03091": {"id": "EGPD", "name": "ABERDEEN/DYCE", "state": "UK", "lat":  57.200, "lon":    2.220, "elev": 65},
"03121": {"id": "", "name": "KILDONAN", "state": "UK", "lat":  55.430, "lon":    5.100, "elev": 18},
"03130": {"id": "EGOY", "name": "WEST FREUGH", "state": "UK", "lat":  54.850, "lon":    4.950, "elev": 16},
"03170": {"id": "", "name": "SHANWELL", "state": "UK", "lat":  56.430, "lon":    2.870, "elev": 5},
"03171": {"id": "EGQL", "name": "LEUCHARS RAF", "state": "UK", "lat":  56.380, "lon":    2.870, "elev": 12},
"03213": {"id": "", "name": "ESKMEALS", "state": "UK", "lat":  54.320, "lon":    3.400, "elev": 9},
"03238": {"id": "", "name": "ALBERMARLE", "state": "UK", "lat":  55.100, "lon":    1.930, "elev": 146},
"03240": {"id": "EGQM", "name": "BOULMER", "state": "UK", "lat":  55.420, "lon":    1.600, "elev": 23},
"03241": {"id": "", "name": "LONG FRAMLINGTO", "state": "UK", "lat":  55.300, "lon":    1.800, "elev": 158},
"03257": {"id": "EGXE", "name": "LEEMING RAF", "state": "UK", "lat":  54.300, "lon":    1.530, "elev": 40},
"03322": {"id": "", "name": "AUGHTON", "state": "UK", "lat":  53.550, "lon":    2.920, "elev": 56},
"03334": {"id": "EGCC", "name": "MANCHESTER INTL", "state": "UK", "lat":  53.340, "lon":    2.280, "elev": 78},
"03345": {"id": "", "name": "EMLEY MOOR", "state": "UK", "lat":  53.620, "lon":    1.670, "elev": 259},
"03346": {"id": "EGNM", "name": "LEEDS AND BRADFORD", "state": "UK", "lat":  53.860, "lon":    1.650, "elev": 208},
"03354": {"id": "", "name": "NOTTINGHAM WX CTR", "state": "UK", "lat":  53.000, "lon":    1.250, "elev": 117},
"03377": {"id": "EGXW", "name": "WADDINGTON RAF", "state": "UK", "lat":  53.170, "lon":    0.520, "elev": 70},
"03414": {"id": "EGOS", "name": "SHAWBURY RAF", "state": "UK", "lat":  52.800, "lon":    2.670, "elev": 76},
"03496": {"id": "", "name": "HEMSBY", "state": "UK", "lat":  52.680, "lon":    1.680, "elev": 14},
"03501": {"id": "", "name": "CAPE DEWI", "state": "UK", "lat":  55.420, "lon":    4.000, "elev": 92},
"03502": {"id": "EGUC", "name": "ABERPORTH", "state": "UK", "lat":  52.130, "lon":    4.570, "elev": 134},
"03559": {"id": "", "name": "CARDINGTON", "state": "UK", "lat":  52.100, "lon":    0.420, "elev": 30},
"03590": {"id": "EGUW", "name": "WATTISHAM RAF", "state": "UK", "lat":  52.120, "lon":    0.970, "elev": 87},
"03614": {"id": "", "name": "CILFYNYDD", "state": "UK", "lat":  51.630, "lon":    3.300, "elev": 194},
"03649": {"id": "EGVN", "name": "BRIZE NORTON RAF", "state": "UK", "lat":  51.750, "lon":    1.580, "elev": 88},
"03693": {"id": "", "name": "SHOEBURYNESS", "state": "UK", "lat":  51.550, "lon":    0.850, "elev": 3},
"03715": {"id": "EGFF", "name": "CARDIFF-WALES", "state": "UK", "lat":  51.400, "lon":    3.350, "elev": 67},
"03743": {"id": "", "name": "LARKHILL", "state": "UK", "lat":  51.200, "lon":    1.800, "elev": 133},
"03774": {"id": "", "name": "CRAWLEY", "state": "UK", "lat":  51.080, "lon":    0.220, "elev": 144},
"03808": {"id": "", "name": "CAMBORNE", "state": "UK", "lat":  50.220, "lon":    5.320, "elev": 88},
"03810": {"id": "", "name": "PENDENNIS POINT", "state": "UK", "lat":  50.150, "lon":    5.070, "elev": 35},
"03815": {"id": "", "name": "LIZARD LIGHTHOU", "state": "UK", "lat":  49.970, "lon":    5.200, "elev": 60},
"03872": {"id": "", "name": "THORNEY ISLAND", "state": "UK", "lat":  50.820, "lon":    0.920, "elev": 4},
"03882": {"id": "", "name": "HERSTOMONCEUX WEST", "state": "UK", "lat":  50.900, "lon":    0.320, "elev": 54},
"03894": {"id": "EGJB", "name": "GUERNSEY AIRPORT", "state": "UK", "lat":  49.430, "lon":    2.600, "elev": 102},
"03918": {"id": "", "name": "CASTOR BAY", "state": "UK", "lat":  54.500, "lon":    6.330, "elev": 17},
"03920": {"id": "", "name": "HILLSBOROUGH", "state": "UK", "lat":  54.800, "lon":    6.170, "elev": 38},
"03953": {"id": "", "name": "VALENTIA OBSERVATORY", "state": "IE", "lat":  51.930, "lon":   10.250, "elev": 14},
"04001": {"id": "", "name": "HVALLATUR", "state": "IL", "lat":  65.530, "lon":   24.470, "elev": 17},
"04018": {"id": "BIKF", "name": "KEFLAVIK", "state": "IL", "lat":  63.970, "lon":   22.600, "elev": 52},
"04089": {"id": "BIEG", "name": "EGILSSTADIR", "state": "IL", "lat":  65.170, "lon":   14.400, "elev": 23},
"04168": {"id": "", "name": "SANDBUDIR", "state": "GL", "lat":  64.930, "lon":   17.980, "elev": 821},
"04202": {"id": "BGTL", "name": "THULE AB", "state": "GL", "lat":  76.530, "lon":   68.750, "elev": 77},
"04220": {"id": "BGEM", "name": "EGEDESMINDE/AUSIAT", "state": "GL", "lat":  68.700, "lon":   52.850, "elev": 41},
"04230": {"id": "BGHB", "name": "HOLSTEINSBORG", "state": "GL", "lat":  66.920, "lon":   53.670, "elev": 9},
"04231": {"id": "BGSF", "name": "SONDRESTROM", "state": "GL", "lat":  67.000, "lon":   50.800, "elev": 46},
"04255": {"id": "BMKA", "name": "MARRAK POINT", "state": "GL", "lat":  63.430, "lon":   51.180, "elev": 41},
"04270": {"id": "BGBW", "name": "NARSARSSUAK", "state": "GL", "lat":  61.180, "lon":   45.420, "elev": 26},
"04310": {"id": "", "name": "NORD", "state": "GL", "lat":  81.600, "lon":   16.700, "elev": 40},
"04320": {"id": "BGDH", "name": "DANMARKSHAVN (PORT)", "state": "GL", "lat":  76.770, "lon":   18.670, "elev": 12},
"04330": {"id": "BGDB", "name": "DANEBORG (AUT)", "state": "GL", "lat":  74.300, "lon":   20.220, "elev": 44},
"04339": {"id": "BGSC", "name": "SCORESBYSUND", "state": "GL", "lat":  70.480, "lon":   21.950, "elev": 69},
"04342": {"id": "", "name": "WALRUS BAY", "state": "GL", "lat":  70.500, "lon":   21.970, "elev": 7},
"04353": {"id": "BIKA", "name": "IKATEQ", "state": "GL", "lat":  65.930, "lon":   36.680, "elev": 56},
"04360": {"id": "BGAM", "name": "ANGMAGSSALIK", "state": "GL", "lat":  65.600, "lon":   37.630, "elev": 52},
"04417": {"id": "    ", "name": "GEOSUMMIT", "state": "GL", "lat":  72.580, "lon":   38.460, "elev": 3255},
"06010": {"id": "EKVG", "name": "SOERVAAG/VAGAR", "state": "FA", "lat":  62.070, "lon":    7.270, "elev": 85},
"06011": {"id": "", "name": "THORSHAVN (PORT)", "state": "FA", "lat":  62.020, "lon":    6.770, "elev": 39},
"06030": {"id": "EKYT", "name": "AALBORG", "state": "DN", "lat":  57.100, "lon":    9.870, "elev": 3},
"06060": {"id": "", "name": "KARUP", "state": "DN", "lat":  56.300, "lon":    9.120, "elev": 53},
"06080": {"id": "EKEB", "name": "ESBJERG", "state": "DN", "lat":  55.520, "lon":    8.550, "elev": 29},
"06173": {"id": "", "name": "STEVNS", "state": "DN", "lat":  55.280, "lon":   31.400, "elev": 40},
"06181": {"id": "", "name": "KOEBENHAVN/JAEGERSBORG", "state": "DN", "lat":  55.770, "lon":   12.530, "elev": 40},
"06210": {"id": "EHVB", "name": "VALKENBURG", "state": "NL", "lat":  52.180, "lon":    4.420, "elev": 2},
"06235": {"id": "EHKD", "name": "DE KOOY", "state": "NL", "lat":  52.920, "lon":    4.780, "elev": 2},
"06242": {"id": "", "name": "VLIELAND", "state": "NL", "lat":  53.250, "lon":    4.920, "elev": 5},
"06260": {"id": "EHDB", "name": "DE BILT", "state": "NL", "lat":  52.100, "lon":    5.180, "elev": 4},
"06320": {"id": "", "name": "LE GOEREE", "state": "NL", "lat":  51.930, "lon":    3.670, "elev": 19},
"06400": {"id": "EBFN", "name": "KOKSIJDE (BEL-AFB)", "state": "BX", "lat":  51.080, "lon":    2.650, "elev": 9},
"06447": {"id": "", "name": "UCCLE/UKKLE", "state": "BX", "lat":  50.800, "lon":    4.350, "elev": 104},
"06458": {"id": "EBBE", "name": "BEAUVECHAIN", "state": "BX", "lat":  50.750, "lon":    4.770, "elev": 127},
"06463": {"id": "EBTN", "name": "GOETSENHOVEN (MIL)", "state": "BX", "lat":  50.780, "lon":    4.950, "elev": 81},
"06476": {"id": "ESBU", "name": "SAINT HUBERT (MIL)", "state": "BX", "lat":  50.030, "lon":    5.400, "elev": 557},
"06496": {"id": "EBLB", "name": "ELSENBORN (MIL)", "state": "BX", "lat":  50.470, "lon":    6.180, "elev": 570},
"06610": {"id": "LSMP", "name": "PAYERNE (MIL/AUT)", "state": "SW", "lat":  46.820, "lon":    6.950, "elev": 491},
"06680": {"id": "", "name": "SAENTIS (AUT)", "state": "SW", "lat":  47.250, "lon":    9.350, "elev": 2500},
"07010": {"id": "", "name": "DUNKERQUE", "state": "FR", "lat":  51.050, "lon":    2.330, "elev": 23},
"07100": {"id": "", "name": "OUESSANT ISLAND", "state": "FR", "lat":  48.470, "lon":    5.130, "elev": 32},
"07107": {"id": "", "name": "BRIGNOGAN", "state": "FR", "lat":  48.680, "lon":    4.330, "elev": 22},
"07110": {"id": "LFRB", "name": "BREST/GUIPAVAS", "state": "FR", "lat":  48.450, "lon":    4.420, "elev": 103},
"07130": {"id": "LFRN", "name": "RENNES/ST. JACQUES", "state": "FR", "lat":  48.070, "lon":    1.730, "elev": 37},
"07139": {"id": "", "name": "ALENCON", "state": "FR", "lat":  48.450, "lon":    0.100, "elev": 141},
"07145": {"id": "", "name": "TRAPPES (AUT)", "state": "FR", "lat":  48.770, "lon":    2.020, "elev": 168},
"07149": {"id": "LFPO", "name": "PARIS/ORLY", "state": "FR", "lat":  48.730, "lon":    2.400, "elev": 96},
"07180": {"id": "LFSN", "name": "NANCY/ESSEY", "state": "FR", "lat":  48.630, "lon":    6.220, "elev": 217},
"07210": {"id": "", "name": "VANNES (AUT)", "state": "FR", "lat":  47.630, "lon":    2.750, "elev": 11},
"07240": {"id": "LFOT", "name": "TOURS/ST. SYMPHO", "state": "FR", "lat":  47.450, "lon":    0.720, "elev": 112},
"07255": {"id": "", "name": "BOURGES", "state": "FR", "lat":  47.070, "lon":    2.370, "elev": 162},
"07280": {"id": "LFSD", "name": "DIJON/LONGVIC", "state": "FR", "lat":  47.270, "lon":    5.080, "elev": 227},
"07412": {"id": "", "name": "CONIAC", "state": "FR", "lat":  45.670, "lon":    0.320, "elev": 30},
"07480": {"id": "LFLY", "name": "LYON/BRON", "state": "FR", "lat":  45.720, "lon":    4.950, "elev": 201},
"07481": {"id": "LFLL", "name": "LYON/SATOLAS", "state": "FR", "lat":  45.730, "lon":    5.080, "elev": 240},
"07500": {"id": "", "name": "CAPE FERRET", "state": "FR", "lat":  44.630, "lon":    1.250, "elev": 10},
"07510": {"id": "LFBD", "name": "BORDEAUX/MERIGNAC", "state": "FR", "lat":  44.830, "lon":    0.700, "elev": 61},
"07579": {"id": "LFMO", "name": "ORANGE/CARITAT", "state": "FR", "lat":  44.130, "lon":    4.830, "elev": 55},
"07645": {"id": "LFME", "name": "NIMES/COURBESSAC", "state": "FR", "lat":  43.870, "lon":    4.400, "elev": 62},
"07690": {"id": "LFMN", "name": "NICE/COTE D'AZUR", "state": "FR", "lat":  43.650, "lon":    7.200, "elev": 10},
"07749": {"id": "", "name": "CAPE BEAR", "state": "FR", "lat":  42.520, "lon":    3.130, "elev": 86},
"07761": {"id": "LFKJ", "name": "AJACCIO/CAMPO ORO", "state": "FR", "lat":  41.920, "lon":    8.800, "elev": 9},
"08001": {"id": "", "name": "LA CORUNA CITY", "state": "SP", "lat":  43.370, "lon":    8.420, "elev": 67},
"08002": {"id": "LECO", "name": "LA CORUNA/ALVED", "state": "SP", "lat":  43.300, "lon":    8.380, "elev": 103},
"08023": {"id": "", "name": "SANTANDER CITY", "state": "SP", "lat":  43.470, "lon":    3.820, "elev": 65},
"08029": {"id": "LESO", "name": "SAN SEBASTIAN", "state": "SP", "lat":  43.350, "lon":    1.800, "elev": 8},
"08094": {"id": "", "name": "HUESCA/MONFLORITE", "state": "SP", "lat":  42.080, "lon":    0.330, "elev": 554},
"08140": {"id": "LEVD", "name": "VALLADOLID (MIL/CIV)", "state": "SP", "lat":  41.720, "lon":    4.850, "elev": 854},
"08160": {"id": "LEZG", "name": "ZARAGOZA (MIL/CIV)", "state": "SP", "lat":  41.670, "lon":    1.020, "elev": 258},
"08190": {"id": "LBCN", "name": "BARCELONA", "state": "SP", "lat":  41.620, "lon":    2.200, "elev": 98},
"08221": {"id": "LEMD", "name": "MADRID/BARAJAS", "state": "SP", "lat":  40.450, "lon":    3.550, "elev": 582},
"08222": {"id": "", "name": "MADRID", "state": "SP", "lat":  40.420, "lon":    3.680, "elev": 655},
"08301": {"id": "", "name": "PALMA DE MALLORCA", "state": "SP", "lat":  39.550, "lon":    2.620, "elev": 6},
"08302": {"id": "", "name": "PALMA/SON BONET", "state": "SP", "lat":  39.600, "lon":    2.700, "elev": 41},
"08383": {"id": "", "name": "HUELVA", "state": "SP", "lat":  37.280, "lon":    6.910, "elev": 20},
"08430": {"id": "", "name": "MURCIA CITY", "state": "SP", "lat":  38.000, "lon":    1.170, "elev": 62},
"08431": {"id": "", "name": "CASTILLO GALERA", "state": "SP", "lat":  37.580, "lon":    1.000, "elev": 217},
"08449": {"id": "LERT", "name": "ROTA NAS", "state": "SP", "lat":  36.650, "lon":    6.350, "elev": 27},
"08495": {"id": "LXGB", "name": "GIBRALTAR (CIV/MIL)", "state": "GI", "lat":  36.150, "lon":    5.350, "elev": 5},
"08506": {"id": "", "name": "HORTA", "state": "PO", "lat":  38.520, "lon":   28.630, "elev": 62},
"08507": {"id": "", "name": "GRACIOSA/AERODROME", "state": "PO", "lat":  39.100, "lon":   28.030, "elev": 28},
"08508": {"id": "", "name": "LAJES/SANTA RITA", "state": "PO", "lat":  38.750, "lon":   27.080, "elev": 113},
"08509": {"id": "LPLA", "name": "LAJES AB", "state": "PO", "lat":  38.770, "lon":   27.100, "elev": 55},
"08521": {"id": "LPFU", "name": "FUNCHAL/MADEIRA", "state": "PO", "lat":  32.680, "lon":   16.770, "elev": 55},
"08522": {"id": "", "name": "FUNCHAL", "state": "PO", "lat":  32.630, "lon":   16.900, "elev": 56},
"08549": {"id": "", "name": "COIMBRA", "state": "PO", "lat":  40.200, "lon":    8.420, "elev": 140},
"08554": {"id": "", "name": "FARO", "state": "PO", "lat":  37.020, "lon":    7.970, "elev": 7},
"08579": {"id": "", "name": "LISBON/GAGO COUTINHO", "state": "PO", "lat":  38.770, "lon":    9.130, "elev": 105},
"08589": {"id": "", "name": "PRAIA", "state": "CV", "lat":  14.900, "lon":   23.520, "elev": 35},
"08594": {"id": "GVAC", "name": "SAL ISL/AMILCAR CAB", "state": "CV", "lat":  16.730, "lon":   22.950, "elev": 55},
"10035": {"id": "", "name": "SCHLESWIG", "state": "DL", "lat":  54.530, "lon":    9.550, "elev": 48},
"10044": {"id": "", "name": "KIEL", "state": "DL", "lat":  54.500, "lon":   10.280, "elev": 23},
"10046": {"id": "", "name": "KIEL/HOLTENAU", "state": "DL", "lat":  54.380, "lon":   10.150, "elev": 32},
"10113": {"id": "", "name": "NORDERNEY", "state": "DL", "lat":  53.710, "lon":    7.150, "elev": 11},
"10168": {"id": "", "name": "GOLDBERT (AUT)", "state": "DL", "lat":  53.600, "lon":   12.100, "elev": 58},
"10184": {"id": "", "name": "GREIFSWALD", "state": "DL", "lat":  54.100, "lon":   13.400, "elev": 6},
"10200": {"id": "EDWE", "name": "EMDEN/KOENIGSPOLDER", "state": "DL", "lat":  53.380, "lon":    7.230, "elev": 5},
"10238": {"id": "ETGB", "name": "BERGEN (MIL)", "state": "DL", "lat":  52.820, "lon":    9.930, "elev": 69},
"10272": {"id": "ETGW", "name": "WITTSTOCK", "state": "DL", "lat":  53.200, "lon":   12.520, "elev": 74},
"10304": {"id": "ETWM", "name": "MEPPEN (MIL)", "state": "DL", "lat":  52.620, "lon":    7.320, "elev": 26},
"10307": {"id": "", "name": "RHEINE", "state": "DL", "lat":  52.270, "lon":    7.430, "elev": 78},
"10337": {"id": "", "name": "HILDESHEIM", "state": "DL", "lat":  52.180, "lon":    9.950, "elev": 88},
"10338": {"id": "EDDV", "name": "HANNOVER", "state": "DL", "lat":  52.470, "lon":    9.700, "elev": 54},
"10384": {"id": "EDDI", "name": "BERLIN/TEMPELHOF", "state": "DL", "lat":  52.470, "lon":   13.400, "elev": 49},
"10393": {"id": "", "name": "LINDENBERG", "state": "DL", "lat":  52.220, "lon":   14.120, "elev": 112},
"10410": {"id": "EDZE", "name": "ESSEN/MULHEIM", "state": "DL", "lat":  51.400, "lon":    6.970, "elev": 161},
"10418": {"id": "", "name": "LUEDENSCHEID", "state": "DL", "lat":  51.250, "lon":    7.650, "elev": 392},
"10437": {"id": "", "name": "FRITZLAR/KASSEL", "state": "DL", "lat":  51.130, "lon":    9.300, "elev": 223},
"10454": {"id": "", "name": "WERNIGERODE", "state": "DL", "lat":  51.850, "lon":   10.770, "elev": 240},
"10468": {"id": "", "name": "OPPIN", "state": "DL", "lat":  51.330, "lon":   12.040, "elev": 106},
"10486": {"id": "", "name": "WAHNSDORF", "state": "DL", "lat":  51.120, "lon":   13.680, "elev": 232},
"10513": {"id": "", "name": "KOLN/BONN", "state": "DL", "lat":  50.870, "lon":    7.130, "elev": 91},
"10548": {"id": "", "name": "MEININGEN", "state": "DL", "lat":  50.570, "lon":   10.370, "elev": 453},
"10577": {"id": "", "name": "CHEMNITZ", "state": "DL", "lat":  50.800, "lon":   12.870, "elev": 419},
"10582": {"id": "", "name": "ZINNWALD/GEORGE", "state": "DL", "lat":  50.730, "lon":   13.750, "elev": 882},
"10618": {"id": "ETGI", "name": "IDAR-OBERSTEIN (MIL)", "state": "DL", "lat":  49.700, "lon":    7.330, "elev": 377},
"10640": {"id": "", "name": "OFFENBACH/MAIN", "state": "DL", "lat":  50.120, "lon":    8.730, "elev": 112},
"10642": {"id": "", "name": "HANAU", "state": "DL", "lat":  50.170, "lon":    8.950, "elev": 112},
"10687": {"id": "", "name": "GRAFENWOHR", "state": "DL", "lat":  49.700, "lon":   11.950, "elev": 414},
"10729": {"id": "", "name": "MANNHEIN/NEUOSTHEIM", "state": "DL", "lat":  49.520, "lon":    8.550, "elev": 100},
"10735": {"id": "", "name": "SINSHEIM (AUT)", "state": "DL", "lat":  49.250, "lon":    8.880, "elev": 169},
"10739": {"id": "", "name": "STUTTGART/SCHNARRENBERG", "state": "DL", "lat":  48.830, "lon":    9.200, "elev": 311},
"10771": {"id": "ETGK", "name": "KUEMMERSBRUCK", "state": "DL", "lat":  49.430, "lon":   11.900, "elev": 418},
"10775": {"id": "ETIH", "name": "HOHENFELS", "state": "DL", "lat":  49.220, "lon":   11.830, "elev": 442},
"10777": {"id": "", "name": "GELBELSEE", "state": "DL", "lat":  48.950, "lon":   11.430, "elev": 539},
"10828": {"id": "", "name": "SIGMARINGEN", "state": "DL", "lat":  48.100, "lon":    9.250, "elev": 646},
"10860": {"id": "ETSI", "name": "INGOLSTADT", "state": "DL", "lat":  48.720, "lon":   11.530, "elev": 370},
"10862": {"id": "", "name": "SIEGENBERG", "state": "DL", "lat":  48.750, "lon":   11.800, "elev": 404},
"10868": {"id": "", "name": "MUNICH/OBERSCHLEISSHEIM", "state": "DL", "lat":  48.250, "lon":   11.580, "elev": 489},
"10954": {"id": "", "name": "ALTENSTADT/SHONGUA", "state": "DL", "lat":  47.830, "lon":   10.870, "elev": 738},
"10962": {"id": "", "name": "HOHENPEISSENBERG", "state": "DL", "lat":  47.800, "lon":   11.020, "elev": 986},
"11010": {"id": "LOWL", "name": "LINZ (CIV/MIL)", "state": "OS", "lat":  48.230, "lon":   14.200, "elev": 313},
"11011": {"id": "LOXL", "name": "HORSCHING", "state": "OS", "lat":  48.230, "lon":   14.180, "elev": 313},
"11030": {"id": "LOXT", "name": "LANGENLEBARN", "state": "OS", "lat":  48.320, "lon":   16.230, "elev": 176},
"11035": {"id": "", "name": "WIEN/HOHE WARTE", "state": "OS", "lat":  48.250, "lon":   16.370, "elev": 200},
"11078": {"id": "", "name": "LILLIENFELD", "state": "OS", "lat":  48.030, "lon":   15.580, "elev": 681},
"11120": {"id": "LOWI", "name": "INNSBRUCK AIRPORT", "state": "OS", "lat":  47.270, "lon":   11.350, "elev": 581},
"11144": {"id": "", "name": "ZELL AM SEE", "state": "OS", "lat":  47.330, "lon":   12.800, "elev": 763},
"11152": {"id": "", "name": "MATTSEE", "state": "OS", "lat":  47.970, "lon":   13.100, "elev": 502},
"11240": {"id": "LOWG", "name": "GRAZ (MIL/CIV)", "state": "OS", "lat":  47.000, "lon":   15.430, "elev": 347},
"11241": {"id": "", "name": "SCHOECKL MOUNTAIN", "state": "OS", "lat":  47.200, "lon":   15.470, "elev": 1438},
"11270": {"id": "", "name": "DELLACH IM DRAUTAL", "state": "OS", "lat":  46.750, "lon":   13.080, "elev": 630},
"11280": {"id": "", "name": "MURAU", "state": "OS", "lat":  47.120, "lon":   14.180, "elev": 818},
"11320": {"id": "", "name": "INNSBRUCK/UNIVERSITY", "state": "OS", "lat":  47.270, "lon":   11.380, "elev": 579},
"11351": {"id": "", "name": "RAMSAU/DACHSTEIN", "state": "OS", "lat":  13.630, "lon":   13.630, "elev": 1207},
"11520": {"id": "", "name": "PRAGUE/LIBUS", "state": "CZ", "lat":  50.000, "lon":   14.450, "elev": 304},
"11722": {"id": "", "name": "BRNO REBESOVICE", "state": "CZ", "lat":  49.080, "lon":   16.620, "elev": 195},
"11747": {"id": "", "name": "PROSTEJOV", "state": "CZ", "lat":  49.450, "lon":   17.130, "elev": 216},
"11952": {"id": "", "name": "POPRAD/GANOVCE", "state": "LO", "lat":  49.030, "lon":   20.320, "elev": 706},
"12105": {"id": "", "name": "KOSZALIN", "state": "PL", "lat":  54.200, "lon":   16.200, "elev": 34},
"12120": {"id": "", "name": "LEBA", "state": "PL", "lat":  54.750, "lon":   17.530, "elev": 2},
"12185": {"id": "", "name": "KETRZYN", "state": "PL", "lat":  54.070, "lon":   21.370, "elev": 110},
"12330": {"id": "EPPO", "name": "POZNAN/LAWICA", "state": "PL", "lat":  52.420, "lon":   16.830, "elev": 92},
"12365": {"id": "", "name": "BRWINOW", "state": "PL", "lat":  52.130, "lon":   20.720, "elev": 98},
"12374": {"id": "", "name": "LEGIONOWO", "state": "PL", "lat":  52.400, "lon":   20.970, "elev": 96},
"12424": {"id": "EPWR", "name": "WROCLAW/STRACHOW", "state": "PL", "lat":  51.100, "lon":   16.870, "elev": 121},
"12425": {"id": "", "name": "WROCLAW/MALY GADOW", "state": "PL", "lat":  51.130, "lon":   16.980, "elev": 116},
"12520": {"id": "", "name": "KLODZKO", "state": "PL", "lat":  50.430, "lon":   16.620, "elev": 357},
"12843": {"id": "", "name": "BUDAPEST/LORINC", "state": "HU", "lat":  47.430, "lon":   19.180, "elev": 139},
"12982": {"id": "LHUD", "name": "SZEGED (AUT)", "state": "HU", "lat":  46.250, "lon":   20.100, "elev": 83},
"13005": {"id": "", "name": "BOVEC", "state": "YG", "lat":  46.330, "lon":   13.570, "elev": 452},
"13275": {"id": "", "name": "BEOGRAD KOSUTNJAK", "state": "YG", "lat":  44.770, "lon":   20.420, "elev": 203},
"13279": {"id": "", "name": "SMEDEREVSKA", "state": "YG", "lat":  44.370, "lon":   20.950, "elev": 122},
"13334": {"id": "", "name": "SPLIT/MARJAN", "state": "YG", "lat":  43.520, "lon":   16.430, "elev": 129},
"13388": {"id": "LYBM", "name": "NIS", "state": "YG", "lat":  43.330, "lon":   21.900, "elev": 203},
"13586": {"id": "LWSK", "name": "SKOPJE/PETROVAC", "state": "YG", "lat":  41.970, "lon":   21.650, "elev": 239},
"14015": {"id": "", "name": "LUUBLUANA/BEZIGRAD", "state": "LJ", "lat":  46.070, "lon":   14.520, "elev": 316},
"14240": {"id": "LDDD", "name": "ZAGREB/MAKSIMIR", "state": "RH", "lat":  45.820, "lon":   16.030, "elev": 123},
"14241": {"id": "LDZA", "name": "ZAGREB/PLESO", "state": "RH", "lat":  45.730, "lon":   16.070, "elev": 107},
"14320": {"id": "", "name": "CRIKVENICA", "state": "RH", "lat":  45.170, "lon":   14.700, "elev": 2},
"14430": {"id": "LDZD", "name": "ZADAR ZEMUNIK", "state": "RH", "lat":  44.100, "lon":   15.350, "elev": 82},
"15001": {"id": "", "name": "AVRAMENI", "state": "RO", "lat":  48.020, "lon":   26.950, "elev": 240},
"15010": {"id": "", "name": "SATU MARE", "state": "RO", "lat":  47.780, "lon":   22.880, "elev": 122},
"15080": {"id": "", "name": "ORADEA", "state": "RO", "lat":  47.050, "lon":   21.930, "elev": 136},
"15090": {"id": "", "name": "IASI", "state": "RO", "lat":  47.170, "lon":   27.600, "elev": 102},
"15120": {"id": "LRCL", "name": "CLUJ-NAPOCA/SOMESEN", "state": "RO", "lat":  46.780, "lon":   23.570, "elev": 413},
"15150": {"id": "", "name": "BACAU", "state": "RO", "lat":  46.570, "lon":   26.980, "elev": 182},
"15189": {"id": "", "name": "DUMBRAVENI", "state": "RO", "lat":  46.230, "lon":   24.570, "elev": 318},
"15200": {"id": "", "name": "ARAD", "state": "RO", "lat":  46.170, "lon":   21.320, "elev": 108},
"15209": {"id": "", "name": "BLAJ", "state": "RO", "lat":  46.180, "lon":   23.920, "elev": 334},
"15310": {"id": "", "name": "GALATI", "state": "RO", "lat":  45.500, "lon":   28.020, "elev": 71},
"15350": {"id": "", "name": "BUZAU", "state": "RO", "lat":  45.150, "lon":   26.820, "elev": 97},
"15360": {"id": "", "name": "SULINA", "state": "RO", "lat":  45.150, "lon":   29.670, "elev": 9},
"15410": {"id": "", "name": "TURNU SEVERAN", "state": "RO", "lat":  44.630, "lon":   22.630, "elev": 77},
"15420": {"id": "LRBS", "name": "BUCHAREST/BANEASA", "state": "RO", "lat":  44.480, "lon":   26.180, "elev": 91},
"15425": {"id": "", "name": "SOLACOLU", "state": "RO", "lat":  44.380, "lon":   26.570, "elev": 52},
"15450": {"id": "", "name": "CRAIOVA", "state": "RO", "lat":  44.230, "lon":   23.870, "elev": 190},
"15470": {"id": "", "name": "ROSIORI DE VEDE", "state": "RO", "lat":  44.120, "lon":   25.000, "elev": 103},
"15480": {"id": "", "name": "CONSTANTA", "state": "RO", "lat":  44.220, "lon":   28.630, "elev": 14},
"15481": {"id": "LRCK", "name": "KOGALNICEANU", "state": "RO", "lat":  44.330, "lon":   28.430, "elev": 102},
"15490": {"id": "", "name": "TURNU MAGURELE", "state": "RO", "lat":  43.750, "lon":   24.880, "elev": 31},
"15614": {"id": "LBSF", "name": "SOFIA (OBSERVATORY)", "state": "BU", "lat":  42.650, "lon":   23.380, "elev": 595},
"15615": {"id": "", "name": "MUSSALA MTN", "state": "BU", "lat":  42.180, "lon":   23.580, "elev": 2927},
"15730": {"id": "", "name": "KARDJALI", "state": "BU", "lat":  41.630, "lon":   25.400, "elev": 336},
"16008": {"id": "", "name": "S. VALENTINO", "state": "IY", "lat":  45.750, "lon":   10.530, "elev": 1461},
"16020": {"id": "LIPB", "name": "BOLZANO", "state": "IY", "lat":  46.470, "lon":   11.330, "elev": 241},
"16044": {"id": "LIPD", "name": "UDINE/CAMPOFORMIDO", "state": "IY", "lat":  46.030, "lon":   13.180, "elev": 92},
"16045": {"id": "LIPI", "name": "RIVOLTO AFB", "state": "IY", "lat":  45.980, "lon":   13.030, "elev": 53},
"16080": {"id": "LIML", "name": "MILANO/LINATE", "state": "IY", "lat":  45.430, "lon":    9.280, "elev": 103},
"16088": {"id": "LIPL", "name": "GHEDI (IT-AFB)", "state": "IY", "lat":  45.420, "lon":   10.280, "elev": 92},
"16113": {"id": "", "name": "CUNEO-LEVALDIGI", "state": "IY", "lat":  44.530, "lon":    7.620, "elev": 386},
"16129": {"id": "LIQP", "name": "PALMARIA ISLAND", "state": "IY", "lat":  44.030, "lon":    9.830, "elev": 192},
"16142": {"id": "", "name": "RIFREDO MUGELLO", "state": "IY", "lat":  44.050, "lon":   11.380, "elev": 887},
"16144": {"id": "", "name": "S. PIETRO CAPOFIUME", "state": "IY", "lat":  44.650, "lon":   11.620, "elev": 38},
"16148": {"id": "LIPC", "name": "CERVIA (IT-AFB)", "state": "IY", "lat":  44.220, "lon":   12.300, "elev": 10},
"16170": {"id": "LIRQ", "name": "FIRENZE", "state": "IY", "lat":  43.800, "lon":   11.200, "elev": 38},
"16242": {"id": "", "name": "ROMA/FIUMICINO", "state": "IY", "lat":  41.800, "lon":   12.230, "elev": 5},
"16245": {"id": "LIRE", "name": "PRATICA DI MARE(AB)", "state": "IY", "lat":  41.650, "lon":   12.430, "elev": 12},
"16310": {"id": "LIQK", "name": "CAPE PALINURO", "state": "IY", "lat":  40.020, "lon":   15.280, "elev": 185},
"16316": {"id": "LIBU", "name": "LATRONICO", "state": "IY", "lat":  40.080, "lon":   16.020, "elev": 896},
"16320": {"id": "LIBR", "name": "BRINDISI/CASALE AFB", "state": "IY", "lat":  40.650, "lon":   17.950, "elev": 10},
"16325": {"id": "LIBH", "name": "MARINA DI GINOS", "state": "IY", "lat":  40.430, "lon":   16.880, "elev": 12},
"16350": {"id": "LIBC", "name": "CROTONE", "state": "IY", "lat":  39.000, "lon":   17.070, "elev": 161},
"16420": {"id": "LICF", "name": "MESSINA", "state": "IY", "lat":  38.200, "lon":   15.550, "elev": 51},
"16429": {"id": "LICT", "name": "TRAPANI/BIRGI (AFB)", "state": "IY", "lat":  37.920, "lon":   12.500, "elev": 7},
"16459": {"id": "LICZ", "name": "SIGONELLA", "state": "IY", "lat":  37.400, "lon":   14.920, "elev": 22},
"16522": {"id": "LIEH", "name": "CAPE CACCIA", "state": "IY", "lat":  40.570, "lon":    8.170, "elev": 205},
"16546": {"id": "LIED", "name": "DECIMOMANNU", "state": "IY", "lat":  39.350, "lon":    8.970, "elev": 30},
"16560": {"id": "LIEE", "name": "CAGLIARI/ELMAS(AFB)", "state": "IY", "lat":  39.250, "lon":    9.050, "elev": 1},
"16597": {"id": "", "name": "LUQA", "state": "MALTA", "lat":  35.850, "lon":   14.480, "elev": 91},
"16610": {"id": "", "name": "KOMOTINI", "state": "GR", "lat":  41.120, "lon":   25.400, "elev": 31},
"16622": {"id": "LGTS", "name": "THESSALONIKI/MIKRA", "state": "GR", "lat":  40.520, "lon":   22.970, "elev": 4},
"16706": {"id": "LGHI", "name": "CHIOS AIRPORT", "state": "GR", "lat":  38.220, "lon":   26.130, "elev": 4},
"16716": {"id": "LGAT", "name": "ATHENS/HELLENKION", "state": "GR", "lat":  37.900, "lon":   23.730, "elev": 15},
"16726": {"id": "LGKL", "name": "KALAMATA", "state": "GR", "lat":  37.070, "lon":   22.020, "elev": 8},
"16744": {"id": "", "name": "THIRA ISLAND", "state": "GR", "lat":  36.420, "lon":   25.430, "elev": 36},
"16754": {"id": "LGIR", "name": "IRAKLION (CIV/AFB)", "state": "GR", "lat":  35.330, "lon":   25.180, "elev": 39},
"16759": {"id": "", "name": "TYMBAKION", "state": "GR", "lat":  35.000, "lon":   24.750, "elev": 7},
"16760": {"id": "", "name": "KASTELI", "state": "GR", "lat":  35.180, "lon":   25.320, "elev": 360},
"17030": {"id": "", "name": "SAMSUN CITY", "state": "TU", "lat":  41.280, "lon":   36.330, "elev": 4},
"17038": {"id": "LTCG", "name": "TRABZON", "state": "TU", "lat":  41.000, "lon":   39.720, "elev": 30},
"17042": {"id": "", "name": "HOPA", "state": "TU", "lat":  41.380, "lon":   41.420, "elev": 33},
"17050": {"id": "", "name": "EDIRNE", "state": "TU", "lat":  41.670, "lon":   26.570, "elev": 48},
"17062": {"id": "", "name": "ISTANBUL/GOZTEPE", "state": "TU", "lat":  40.970, "lon":   29.080, "elev": 33},
"17064": {"id": "", "name": "ISTANBUL/KARTAL", "state": "TU", "lat":  40.900, "lon":   29.150, "elev": 18},
"17067": {"id": "", "name": "GOLCUK/DUMLUPINAR", "state": "TU", "lat":  40.720, "lon":   29.820, "elev": 18},
"17068": {"id": "", "name": "CENGIZTOPEL", "state": "TU", "lat":  40.730, "lon":   30.080, "elev": 70},
"17095": {"id": "", "name": "ERZURUM BOLGE", "state": "TU", "lat":  39.900, "lon":   41.280, "elev": 1869},
"17100": {"id": "", "name": "IGDIR", "state": "TU", "lat":  39.930, "lon":   44.030, "elev": 858},
"17130": {"id": "", "name": "ANKARA/CENTRAL", "state": "TU", "lat":  39.950, "lon":   32.880, "elev": 894},
"17160": {"id": "", "name": "KIRSEHIR", "state": "TU", "lat":  39.150, "lon":   34.170, "elev": 995},
"17162": {"id": "", "name": "GEMEREK", "state": "TU", "lat":  39.180, "lon":   36.070, "elev": 1171},
"17196": {"id": "LTAM", "name": "KAISERI CITY", "state": "TU", "lat":  38.720, "lon":   35.500, "elev": 1043},
"17200": {"id": "LTAT", "name": "MALATYA/ERHAC", "state": "TU", "lat":  38.430, "lon":   38.080, "elev": 849},
"17220": {"id": "", "name": "IZMIR", "state": "TU", "lat":  38.430, "lon":   27.170, "elev": 29},
"17240": {"id": "LTBM", "name": "ISPARTA", "state": "TU", "lat":  37.750, "lon":   30.550, "elev": 997},
"17250": {"id": "", "name": "NIGDE", "state": "TU", "lat":  37.970, "lon":   34.680, "elev": 1208},
"17270": {"id": "LTCH", "name": "SANLIURFA", "state": "TU", "lat":  37.130, "lon":   38.770, "elev": 549},
"17280": {"id": "LTCC", "name": "DIYARBAKIR(CIV/AFB)", "state": "TU", "lat":  37.880, "lon":   40.200, "elev": 674},
"17281": {"id": "", "name": "DIYABAKIR-BOLGE", "state": "TU", "lat":  37.900, "lon":   40.200, "elev": 675},
"17300": {"id": "", "name": "ANTALYA", "state": "TU", "lat":  36.700, "lon":   30.730, "elev": 43},
"17350": {"id": "LTAG", "name": "ADANA/INCIRLIK", "state": "TU", "lat":  37.000, "lon":   35.420, "elev": 66},
"17351": {"id": "", "name": "ADANA/BOLGE", "state": "TU", "lat":  36.980, "lon":   35.350, "elev": 28},
"17352": {"id": "LTAF", "name": "ADANA/SAKIRPASA", "state": "TU", "lat":  36.980, "lon":   35.300, "elev": 20},
"17600": {"id": "LCPH", "name": "PAPHOS", "state": "CY", "lat":  34.470, "lon":   32.250, "elev": 8},
"17601": {"id": "LCRA", "name": "AKROTIRI (RAF)", "state": "CY", "lat":  34.580, "lon":   32.980, "elev": 23},
"17606": {"id": "", "name": "NICOSIA", "state": "CY", "lat":  35.200, "lon":   33.300, "elev": 224},
"17607": {"id": "LCNC", "name": "NICOSIA/ATHALASSA", "state": "CY", "lat":  35.200, "lon":   33.400, "elev": 161},
"17609": {"id": "LCLK", "name": "LARNACA AIRPORT", "state": "CY", "lat":  34.880, "lon":   33.630, "elev": 2},
"20046": {"id": "", "name": "OSTROV KHEISA", "state": "DK RA", "lat":  80.620, "lon":   58.050, "elev": 20},
"20069": {"id": "", "name": "OSTROV LIEZ", "state": "DK RA", "lat":  79.500, "lon":   76.980, "elev": 12},
"20107": {"id": "", "name": "BARENCBURG", "state": "AR RS", "lat":  78.070, "lon":   14.220, "elev": 49},
"20274": {"id": "", "name": "UJEDINENIJA ISLAND", "state": "DK RA", "lat":  77.500, "lon":   82.230, "elev": 23},
"20292": {"id": "", "name": "CAPE CELJUSKIN", "state": "DK RA", "lat":  77.720, "lon":  104.300, "elev": 13},
"20353": {"id": "", "name": "MYS ZHELANIA", "state": "DK RA", "lat":  76.950, "lon":   68.580, "elev": 8},
"20667": {"id": "", "name": "BELY ISLAND", "state": "DK RA", "lat":  73.330, "lon":   70.030, "elev": 6},
"20674": {"id": "", "name": "DIKSON ISLAND", "state": "DK RA", "lat":  73.530, "lon":   80.400, "elev": 47},
"20744": {"id": "", "name": "MALYE KARMAKULY", "state": "DK RA", "lat":  72.380, "lon":   52.730, "elev": 16},
"20891": {"id": "", "name": "HATANGA", "state": "DK RA", "lat":  72.000, "lon":  102.570, "elev": 33},
"21358": {"id": "", "name": "OSTROV ZOHOVA", "state": "TK RA", "lat":  76.150, "lon":  152.830, "elev": 14},
"21432": {"id": "", "name": "KOTEL'NYJ ISLAND", "state": "TK RA", "lat":  76.000, "lon":  137.900, "elev": 10},
"21504": {"id": "", "name": "PREOBRAZENIJA ISLAND", "state": "TK RA", "lat":  74.670, "lon":  112.930, "elev": 57},
"21647": {"id": "", "name": "CAPE SALAUROVA", "state": "TK RA", "lat":  73.180, "lon":  143.930, "elev": 22},
"21824": {"id": "", "name": "TIKSI", "state": "TK RA", "lat":  71.580, "lon":  128.920, "elev": 8},
"21908": {"id": "", "name": "DZALINDA", "state": "TK RA", "lat":  70.130, "lon":  113.970, "elev": 62},
"21946": {"id": "", "name": "COKURDAH", "state": "TK RA", "lat":  70.620, "lon":  147.900, "elev": 61},
"21965": {"id": "", "name": "CHETYREKHSTOLBOVOY", "state": "TK RA", "lat":  70.630, "lon":  162.400, "elev": 38},
"21982": {"id": "", "name": "VRANGELJA ISLAND", "state": "TK RA", "lat":  70.980, "lon":  178.480, "elev": 3},
"22008": {"id": "ULMM", "name": "MURMANSK", "state": "AR RS", "lat":  68.980, "lon":   33.120, "elev": 121},
"22113": {"id": "ULMM", "name": "MURMANSK", "state": "AR RS", "lat":  68.970, "lon":   33.050, "elev": 121},
"22114": {"id": "", "name": "LOPARSKAYA", "state": "AR RS", "lat":  68.630, "lon":   33.200, "elev": 112},
"22204": {"id": "", "name": "KOVDOR", "state": "AR RS", "lat":  67.570, "lon":   30.400, "elev": 247},
"22213": {"id": "", "name": "APATITOVAYA", "state": "AR RS", "lat":  67.830, "lon":   33.750, "elev": 135},
"22217": {"id": "", "name": "KANDALAKSA", "state": "AR RS", "lat":  67.150, "lon":   32.350, "elev": 26},
"22271": {"id": "", "name": "SOJNA", "state": "AR RS", "lat":  67.880, "lon":   44.130, "elev": 16},
"22522": {"id": "", "name": "KEM (PORT)", "state": "LE RS", "lat":  64.980, "lon":   34.800, "elev": 10},
"22543": {"id": "", "name": "ARCHANGEL'SK", "state": "AR RS", "lat":  64.620, "lon":   40.510, "elev": 6},
"22550": {"id": "ULAA", "name": "ARCHANGEL'SK", "state": "AR RS", "lat":  64.530, "lon":   40.470, "elev": 13},
"22551": {"id": "", "name": "MUD'JUG ISLAND", "state": "AR RS", "lat":  64.850, "lon":   40.280, "elev": 3},
"22802": {"id": "", "name": "SORTOVALA", "state": "LE RS", "lat":  61.720, "lon":   30.720, "elev": 18},
"22820": {"id": "", "name": "PETROZAVODSK", "state": "LE RS", "lat":  61.820, "lon":   34.270, "elev": 112},
"22845": {"id": "", "name": "KARGOPOL'", "state": "AR RS", "lat":  61.500, "lon":   38.930, "elev": 121},
"23022": {"id": "", "name": "AMDERMA", "state": "DK RA", "lat":  69.770, "lon":   61.680, "elev": 53},
"23058": {"id": "", "name": "ANTIPAJETA", "state": "DK RA", "lat":  69.150, "lon":   77.000, "elev": 4},
"23078": {"id": "", "name": "NORILSK", "state": "DK RA", "lat":  69.330, "lon":   88.100, "elev": 62},
"23146": {"id": "", "name": "MYS KAMENNY", "state": "DK RA", "lat":  68.470, "lon":   73.600, "elev": 2},
"23205": {"id": "", "name": "NAR'JAN-MAR", "state": "AR RA", "lat":  67.650, "lon":   53.020, "elev": 7},
"23215": {"id": "", "name": "HOREJ-VER", "state": "AR RA", "lat":  67.430, "lon":   58.030, "elev": 71},
"23274": {"id": "", "name": "YGARKA", "state": "AR RA", "lat":  67.470, "lon":   86.570, "elev": 20},
"23330": {"id": "", "name": "SALEHARD", "state": "NO RA", "lat":  66.530, "lon":   66.530, "elev": 16},
"23415": {"id": "", "name": "PECHORA", "state": "AR RA", "lat":  65.120, "lon":   57.100, "elev": 56},
"23418": {"id": "", "name": "PECORA", "state": "AR RA", "lat":  65.120, "lon":   57.100, "elev": 56},
"23472": {"id": "", "name": "TURUHANSK", "state": "NO RA", "lat":  65.780, "lon":   87.950, "elev": 32},
"23552": {"id": "", "name": "TARKO-SALE", "state": "NO RA", "lat":  64.920, "lon":   77.820, "elev": 27},
"23802": {"id": "UUYY", "name": "SYKTYVKAR'", "state": "AR RA", "lat":  61.680, "lon":   50.780, "elev": 116},
"23804": {"id": "UUYY", "name": "SYKTYVKAR", "state": "AR RA", "lat":  61.720, "lon":   50.830, "elev": 119},
"23884": {"id": "", "name": "BOR", "state": "NO RA", "lat":  61.600, "lon":   90.000, "elev": 63},
"23921": {"id": "", "name": "IVDEL'", "state": "SV RA", "lat":  60.680, "lon":   60.430, "elev": 101},
"23927": {"id": "", "name": "SEVEROURALSK", "state": "SV RA", "lat":  60.150, "lon":   60.020, "elev": 186},
"23933": {"id": "USHH", "name": "HANTY-MANSIJSK", "state": "NO RA", "lat":  60.970, "lon":   69.070, "elev": 40},
"23955": {"id": "", "name": "ALEKSANDROVSKOE", "state": "NO RA", "lat":  60.430, "lon":   77.870, "elev": 47},
"24122": {"id": "", "name": "OLENEK", "state": "HA RA", "lat":  68.500, "lon":  112.430, "elev": 220},
"24125": {"id": "", "name": "OLENEK", "state": "HA RA", "lat":  68.500, "lon":  112.430, "elev": 220},
"24266": {"id": "", "name": "VERHOJANSK", "state": "HA RA", "lat":  67.550, "lon":  133.380, "elev": 137},
"24343": {"id": "", "name": "ZIGANSK", "state": "HA RA", "lat":  66.770, "lon":  123.400, "elev": 93},
"24507": {"id": "", "name": "TURA", "state": "NO RA", "lat":  64.270, "lon":  100.230, "elev": 186},
"24641": {"id": "", "name": "VILJUJSK", "state": "HA RA", "lat":  63.770, "lon":  121.620, "elev": 107},
"24688": {"id": "", "name": "OJMJAKON", "state": "HA RA", "lat":  63.270, "lon":  143.150, "elev": 745},
"24726": {"id": "UERR", "name": "MIRNY", "state": "HB RA", "lat":  62.550, "lon":  113.880, "elev": 347},
"24790": {"id": "", "name": "SUSUMAN", "state": "HB RA", "lat":  62.780, "lon":  148.130, "elev": 649},
"24817": {"id": "", "name": "ERBOGACEN", "state": "IR RA", "lat":  61.270, "lon":  108.020, "elev": 291},
"24908": {"id": "", "name": "VANAVARA", "state": "NO RA", "lat":  60.330, "lon":  102.270, "elev": 260},
"24944": {"id": "", "name": "OLEKMINSK", "state": "HA RA", "lat":  60.400, "lon":  120.420, "elev": 226},
"24947": {"id": "", "name": "OLEKMINSK", "state": "HA RA", "lat":  60.370, "lon":  120.420, "elev": 226},
"24959": {"id": "UEEE", "name": "YAKUTSK AIRPORT", "state": "HA RA", "lat":  62.080, "lon":  129.750, "elev": 103},
"25042": {"id": "", "name": "AJON ISLAND", "state": "HB RA", "lat":  69.830, "lon":  168.670, "elev": 16},
"25123": {"id": "", "name": "CERSKIJ", "state": "HA RA", "lat":  68.800, "lon":  161.280, "elev": 32},
"25173": {"id": "", "name": "CAPE SMIDTA", "state": "HA RA", "lat":  68.920, "lon":  179.480, "elev": 7},
"25399": {"id": "", "name": "CAPE UELEN", "state": "HA RA", "lat":  66.170, "lon":  169.830, "elev": 7},
"25400": {"id": "", "name": "ZYRJANKA", "state": "HA RA", "lat":  65.730, "lon":  150.900, "elev": 43},
"25403": {"id": "", "name": "ZYRYANKA", "state": "HA RA", "lat":  65.730, "lon":  150.900, "elev": 43},
"25428": {"id": "", "name": "OMOLON", "state": "HA RA", "lat":  65.220, "lon":  160.500, "elev": 253},
"25551": {"id": "", "name": "MARKOVO", "state": "HA RA", "lat":  64.680, "lon":  170.420, "elev": 33},
"25563": {"id": "UHMA", "name": "ANADYR'", "state": "HA RA", "lat":  64.780, "lon":  177.570, "elev": 62},
"25594": {"id": "", "name": "BUKHTA PROVIDENCIA", "state": "HA RA", "lat":  64.430, "lon":  173.230, "elev": 3},
"25677": {"id": "", "name": "UGOLNAJA", "state": "HA RA", "lat":  63.050, "lon":  179.320, "elev": 85},
"25703": {"id": "", "name": "SEJMCAN", "state": "HA RA", "lat":  62.920, "lon":  152.420, "elev": 207},
"25822": {"id": "", "name": "KUSHKA", "state": "HA RA", "lat":  61.950, "lon":  160.370, "elev": 20},
"25913": {"id": "UHMM", "name": "MAGADAN", "state": "HA RA", "lat":  59.580, "lon":  150.780, "elev": 118},
"25954": {"id": "", "name": "KORF", "state": "HA RA", "lat":  60.350, "lon":  166.000, "elev": 3},
"26038": {"id": "ULTT", "name": "TALLIN", "state": "HA RA", "lat":  59.450, "lon":   24.800, "elev": 44},
"26063": {"id": "ULLI", "name": "ST. PETERSBURG", "state": "LE RS", "lat":  59.970, "lon":   30.300, "elev": 72},
"26075": {"id": "", "name": "ST. PETERSBURG", "state": "LE RS", "lat":  59.950, "lon":   30.700, "elev": 72},
"26080": {"id": "", "name": "MOTOKHOVO", "state": "LE RS", "lat":  59.530, "lon":   32.380, "elev": 34},
"26258": {"id": "", "name": "PSKOV", "state": "LE RS", "lat":  57.800, "lon":   28.420, "elev": 42},
"26291": {"id": "", "name": "BOROVICI", "state": "LE RS", "lat":  58.420, "lon":   33.900, "elev": 92},
"26298": {"id": "", "name": "BOLOGOE", "state": "LE RS", "lat":  57.900, "lon":   34.050, "elev": 178},
"26378": {"id": "", "name": "HOLM", "state": "LE RS", "lat":  57.150, "lon":   31.180, "elev": 71},
"26381": {"id": "", "name": "DEMJANSK", "state": "LE RS", "lat":  57.650, "lon":   32.470, "elev": 48},
"26406": {"id": "", "name": "LIEPAJA", "state": "LE BY", "lat":  56.480, "lon":   21.020, "elev": 7},
"26422": {"id": "UMRR", "name": "RIGA", "state": "LE BY", "lat":  56.970, "lon":   24.070, "elev": 7},
"26425": {"id": "", "name": "GELGABA", "state": "LE BY", "lat":  56.650, "lon":   23.730, "elev": 9},
"26429": {"id": "", "name": "BAUSKA", "state": "RA", "lat":  56.400, "lon":   24.220, "elev": 33},
"26435": {"id": "", "name": "LVA SKRIVERI", "state": "LE", "lat":  56.650, "lon":   25.130, "elev": 83},
"26441": {"id": "", "name": "MADONA", "state": "BY", "lat":  56.880, "lon":   26.330, "elev": 251},
"26477": {"id": "ULOL", "name": "VELIKIE LUKI", "state": "LE RS", "lat":  56.380, "lon":   30.600, "elev": 98},
"26529": {"id": "", "name": "PANEVEZYS", "state": "MI BY", "lat":  55.750, "lon":   24.380, "elev": 59},
"26629": {"id": "", "name": "KAUNAS", "state": "MI BY", "lat":  54.880, "lon":   23.880, "elev": 75},
"26702": {"id": "", "name": "KALININGRAD", "state": "MI BY", "lat":  54.700, "lon":   20.620, "elev": 27},
"26781": {"id": "", "name": "SMOLENSK", "state": "MI RS", "lat":  54.750, "lon":   32.070, "elev": 241},
"26850": {"id": "UMMS", "name": "MINSK", "state": "MI BY", "lat":  53.870, "lon":   27.530, "elev": 234},
"26863": {"id": "", "name": "MOGILEV", "state": "MI BY", "lat":  53.900, "lon":   30.320, "elev": 193},
"27037": {"id": "ULWW", "name": "VOLOGDA", "state": "AR RS", "lat":  59.230, "lon":   39.870, "elev": 131},
"27038": {"id": "", "name": "VOLOGDA", "state": "AR RS", "lat":  59.320, "lon":   39.930, "elev": 130},
"27199": {"id": "", "name": "KIROV", "state": "MS RS", "lat":  58.600, "lon":   49.630, "elev": 158},
"27225": {"id": "", "name": "RYBINSK", "state": "MS RS", "lat":  58.000, "lon":   38.830, "elev": 114},
"27459": {"id": "", "name": "NIZNIJ NOVGOROD", "state": "MS RS", "lat":  56.270, "lon":   44.000, "elev": 157},
"27594": {"id": "", "name": "KAZAN'", "state": "RS", "lat":  55.820, "lon":   48.520, "elev": 127},
"27595": {"id": "UWKD", "name": "KAZAN'", "state": "MS RS", "lat":  55.780, "lon":   49.180, "elev": 116},
"27611": {"id": "", "name": "NARO FOMINSK", "state": "MS RS", "lat":  55.380, "lon":   36.700, "elev": 193},
"27612": {"id": "", "name": "MOSCOW", "state": "MS RS", "lat":  55.750, "lon":   37.950, "elev": 200},
"27618": {"id": "", "name": "SERPUHOV", "state": "MS RS", "lat":  54.930, "lon":   37.470, "elev": 166},
"27707": {"id": "", "name": "SUHINICI", "state": "MS RS", "lat":  54.120, "lon":   35.330, "elev": 239},
"27713": {"id": "UUDD", "name": "MOSCOW POLGOPRUDNYJ", "state": "MS RS", "lat":  55.400, "lon":   37.900, "elev": 179},
"27730": {"id": "", "name": "RJAZAN'", "state": "MS RS", "lat":  54.630, "lon":   39.700, "elev": 158},
"27944": {"id": "", "name": "TAMBOV", "state": "MS RS", "lat":  52.720, "lon":   41.780, "elev": 161},
"27947": {"id": "", "name": "TAMBOV", "state": "MS RS", "lat":  52.730, "lon":   41.470, "elev": 139},
"27962": {"id": "UWPP", "name": "PENZA", "state": "MS RS", "lat":  53.130, "lon":   45.020, "elev": 174},
"27995": {"id": "", "name": "BEZENCUKSKAJA", "state": "MS RS", "lat":  52.980, "lon":   49.430, "elev": 45},
"28225": {"id": "USPP", "name": "PERM", "state": "SV RA", "lat":  57.950, "lon":   56.200, "elev": 170},
"28275": {"id": "", "name": "TOBOLSK", "state": "NO RA", "lat":  58.150, "lon":   68.180, "elev": 44},
"28440": {"id": "USSS", "name": "SVERDLOVSK", "state": "SV RA", "lat":  56.800, "lon":   60.630, "elev": 237},
"28445": {"id": "", "name": "VERHNEE DUBROVO", "state": "SV RA", "lat":  56.730, "lon":   61.070, "elev": 290},
"28598": {"id": "", "name": "SARGATSKOE", "state": "NO RA", "lat":  55.600, "lon":   73.480, "elev": 87},
"28601": {"id": "", "name": "CISTOPOL", "state": "RA", "lat":  55.350, "lon":   50.620, "elev": 113},
"28661": {"id": "", "name": "KURGAN", "state": "SV RA", "lat":  55.470, "lon":   65.400, "elev": 79},
"28695": {"id": "", "name": "OMSK", "state": "NO RA", "lat":  54.930, "lon":   73.400, "elev": 122},
"28698": {"id": "UNDD", "name": "OMSK", "state": "NO RA", "lat":  54.930, "lon":   73.400, "elev": 123},
"28712": {"id": "", "name": "TUIMAZY", "state": "SV RA", "lat":  54.580, "lon":   53.730, "elev": 126},
"28722": {"id": "UWUU", "name": "UFA", "state": "SV RA", "lat":  54.750, "lon":   56.000, "elev": 105},
"28900": {"id": "UWWW", "name": "SAMARA", "state": "AL RA", "lat":  53.250, "lon":   50.450, "elev": 40},
"28951": {"id": "", "name": "KOSTANAI", "state": "AL RA", "lat":  53.230, "lon":   63.620, "elev": 171},
"28952": {"id": "", "name": "KUSTANAJ", "state": "AL RA", "lat":  53.220, "lon":   63.620, "elev": 156},
"29231": {"id": "", "name": "KOLPASEV", "state": "NO RA", "lat":  58.300, "lon":   82.900, "elev": 76},
"29263": {"id": "UNII", "name": "YENISEYSK", "state": "NO RA", "lat":  58.450, "lon":   92.150, "elev": 78},
"29282": {"id": "", "name": "BOGUCANY", "state": "NO RA", "lat":  58.420, "lon":   97.400, "elev": 134},
"29348": {"id": "", "name": "PERVOMAJSKOE", "state": "NO RA", "lat":  57.070, "lon":   86.220, "elev": 115},
"29498": {"id": "", "name": "SITKINO", "state": "NO RA", "lat":  56.350, "lon":   98.370, "elev": 221},
"29563": {"id": "", "name": "KACA", "state": "RA", "lat":  56.120, "lon":   92.200, "elev": 479},
"29572": {"id": "", "name": "EMEL'JANOVO", "state": "NO RA", "lat":  56.180, "lon":   92.620, "elev": 296},
"29574": {"id": "", "name": "KRASNOJARSK", "state": "NO RA", "lat":  56.000, "lon":   92.880, "elev": 206},
"29612": {"id": "", "name": "BARABINSK", "state": "NO RA", "lat":  55.370, "lon":   78.370, "elev": 120},
"29634": {"id": "UNNT", "name": "NOVOSIBIRSK", "state": "NO RA", "lat":  55.030, "lon":   82.900, "elev": 177},
"29636": {"id": "", "name": "TOGUCIN", "state": "NO RA", "lat":  55.230, "lon":   84.400, "elev": 171},
"29698": {"id": "UINN", "name": "NIZNE-UDINSK", "state": "IR RA", "lat":  54.880, "lon":   99.030, "elev": 410},
"29736": {"id": "", "name": "MASLJANINO", "state": "NO RA", "lat":  54.330, "lon":   84.220, "elev": 198},
"29838": {"id": "UNBB", "name": "BARNAUL", "state": "NO RA", "lat":  53.400, "lon":   83.700, "elev": 252},
"29839": {"id": "", "name": "BARNAUL", "state": "NO RA", "lat":  53.210, "lon":   83.490, "elev": 159},
"29862": {"id": "", "name": "HAKASSKATA", "state": "NO RA", "lat":  53.770, "lon":   91.320, "elev": 256},
"29999": {"id": "", "name": "ORLIK (MTN STN)", "state": "IR RA", "lat":  52.500, "lon":   99.820, "elev": 1570},
"30054": {"id": "", "name": "VITIM", "state": "HA RA", "lat":  59.450, "lon":  112.580, "elev": 193},
"30230": {"id": "UIKK", "name": "KIRENSK", "state": "IR RA", "lat":  57.770, "lon":  108.120, "elev": 258},
"30309": {"id": "UIBB", "name": "BRATSK", "state": "IR RA", "lat":  56.070, "lon":  101.830, "elev": 489},
"30372": {"id": "", "name": "CARA", "state": "IR RA", "lat":  56.920, "lon":  118.370, "elev": 711},
"30457": {"id": "", "name": "BAUNT", "state": "RA", "lat":  55.270, "lon":  113.130, "elev": 1078},
"30507": {"id": "", "name": "IKEJ", "state": "IR RA", "lat":  54.180, "lon":  100.080, "elev": 527},
"30521": {"id": "", "name": "ZIGALOVO", "state": "IR RA", "lat":  54.800, "lon":  105.220, "elev": 428},
"30554": {"id": "", "name": "BOGDARIN", "state": "IR RA", "lat":  54.620, "lon":  113.130, "elev": 995},
"30557": {"id": "", "name": "BAGDARIN", "state": "IR RA", "lat":  54.470, "lon":  113.580, "elev": 995},
"30565": {"id": "", "name": "UST-KARENGA", "state": "IR RA", "lat":  54.450, "lon":  116.520, "elev": 686},
"30635": {"id": "", "name": "UST-BARGUZIN", "state": "IR RA", "lat":  54.420, "lon":  109.020, "elev": 457},
"30673": {"id": "", "name": "MOGOCA", "state": "IR RA", "lat":  53.730, "lon":  119.780, "elev": 619},
"30692": {"id": "", "name": "SKOVORODINO", "state": "HA RA", "lat":  54.000, "lon":  123.970, "elev": 400},
"30710": {"id": "", "name": "IRKUTSK", "state": "IR RA", "lat":  52.400, "lon":  104.200, "elev": 437},
"30715": {"id": "", "name": "ANGARSK", "state": "IR RA", "lat":  52.480, "lon":  103.850, "elev": 450},
"30758": {"id": "UIAA", "name": "CITA/KADALA", "state": "IR RA", "lat":  52.020, "lon":  113.330, "elev": 685},
"30815": {"id": "", "name": "HAMAR-DABAN", "state": "IR RA", "lat":  51.530, "lon":  103.600, "elev": 1442},
"30858": {"id": "", "name": "KUROT-DARASUA", "state": "IR RA", "lat":  51.200, "lon":  113.720, "elev": 805},
"30935": {"id": "", "name": "KRASNYJ CIKOJ", "state": "IR RA", "lat":  50.370, "lon":  108.750, "elev": 770},
"30965": {"id": "", "name": "BORZJA", "state": "IR RA", "lat":  50.380, "lon":  116.520, "elev": 684},
"31004": {"id": "", "name": "ALDAN", "state": "HA RA", "lat":  58.620, "lon":  125.370, "elev": 682},
"31088": {"id": "", "name": "OHOTSK", "state": "HA RA", "lat":  59.370, "lon":  143.200, "elev": 6},
"31168": {"id": "", "name": "AJAN", "state": "HA RA", "lat":  56.450, "lon":  138.150, "elev": 9},
"31300": {"id": "", "name": "ZEJA", "state": "HA RA", "lat":  53.750, "lon":  127.230, "elev": 232},
"31329": {"id": "UHBP", "name": "EKIMCAN", "state": "HA RA", "lat":  53.070, "lon":  132.930, "elev": 543},
"31369": {"id": "UHNN", "name": "NIKOLAEVSK", "state": "HA RA", "lat":  53.150, "lon":  140.700, "elev": 68},
"31510": {"id": "", "name": "BLAGOVESCENSK", "state": "HA RA", "lat":  50.270, "lon":  127.500, "elev": 137},
"31538": {"id": "", "name": "SUTUR", "state": "HA RA", "lat":  50.070, "lon":  132.130, "elev": 349},
"31561": {"id": "", "name": "KOMSOMOLSK", "state": "HB RA", "lat":  50.600, "lon":  137.030, "elev": 19},
"31707": {"id": "", "name": "EKATERINO-NIKOL", "state": "HA RA", "lat":  47.730, "lon":  130.970, "elev": 74},
"31735": {"id": "UHHH", "name": "HABAROVSK/NOVY", "state": "HA RA", "lat":  48.520, "lon":  135.170, "elev": 72},
"31736": {"id": "", "name": "HABAROVSK", "state": "HA RA", "lat":  48.530, "lon":  135.230, "elev": 72},
"31770": {"id": "", "name": "SOVETSKAY GAVAN", "state": "HA RA", "lat":  49.000, "lon":  140.270, "elev": 22},
"31873": {"id": "", "name": "DAL'NERECENSK", "state": "HA RA", "lat":  45.870, "lon":  133.730, "elev": 107},
"31909": {"id": "", "name": "TERNEJ", "state": "HA RA", "lat":  45.030, "lon":  136.670, "elev": 68},
"31960": {"id": "", "name": "VLADIVOSTOK", "state": "HA RA", "lat":  43.120, "lon":  131.900, "elev": 78},
"31977": {"id": "", "name": "SAD-GOROD", "state": "HB RA", "lat":  43.270, "lon":  132.050, "elev": 82},
"32061": {"id": "", "name": "ALEKSANDROVSK-SAHALINSKIJ", "state": "RA", "lat":  50.900, "lon":  142.170, "elev": 31},
"32098": {"id": "", "name": "PORONAJSK", "state": "HA RA", "lat":  49.220, "lon":  143.100, "elev": 4},
"32099": {"id": "", "name": "TERPENIYA", "state": "HA RA", "lat":  48.500, "lon":  144.750, "elev": 33},
"32150": {"id": "UHSS", "name": "JUZNO-SAHALINSK", "state": "HA RA", "lat":  46.920, "lon":  142.730, "elev": 31},
"32165": {"id": "", "name": "JUZNO-KURILSK", "state": "HA RA", "lat":  44.020, "lon":  145.870, "elev": 40},
"32186": {"id": "", "name": "URUP ISLAND", "state": "HA RA", "lat":  46.200, "lon":  150.500, "elev": 70},
"32215": {"id": "", "name": "SEVERO-KURILSK", "state": "HA RA", "lat":  50.680, "lon":  156.130, "elev": 23},
"32217": {"id": "", "name": "MYS VASIL'EVA", "state": "HA RA", "lat":  50.020, "lon":  155.400, "elev": 23},
"32389": {"id": "", "name": "KLJUCI", "state": "HA RA", "lat":  56.320, "lon":  160.830, "elev": 28},
"32477": {"id": "", "name": "SOBOLEVO", "state": "HA RA", "lat":  54.300, "lon":  155.970, "elev": 25},
"32540": {"id": "UHPP", "name": "PETROPAVLOVSK-KAMCHATSKIJ", "state": "RA", "lat":  52.970, "lon":  158.750, "elev": 24},
"32618": {"id": "", "name": "NIKOLSKOE/BERINGA", "state": "HA RA", "lat":  55.200, "lon":  165.980, "elev": 6},
"33008": {"id": "", "name": "BREST", "state": "MI BY", "lat":  52.120, "lon":   23.670, "elev": 142},
"33041": {"id": "UMGG", "name": "GOMEL", "state": "MI BY", "lat":  52.400, "lon":   30.950, "elev": 126},
"33317": {"id": "", "name": "SEPETOVKA", "state": "KI UR", "lat":  50.170, "lon":   27.050, "elev": 278},
"33345": {"id": "UKKK", "name": "KIEV/ZHULYANY", "state": "KI UR", "lat":  50.400, "lon":   30.450, "elev": 168},
"33347": {"id": "UKBB", "name": "BORYSPIL", "state": "KI UR", "lat":  50.330, "lon":   30.970, "elev": 122},
"33393": {"id": "UKLL", "name": "L'VIV", "state": "KI UR", "lat":  49.820, "lon":   23.950, "elev": 325},
"33631": {"id": "", "name": "UZGOROD", "state": "KI UR", "lat":  48.630, "lon":   22.270, "elev": 118},
"33658": {"id": "", "name": "CHERNIVTSI", "state": "KI UR", "lat":  48.370, "lon":   25.900, "elev": 246},
"33663": {"id": "", "name": "MOGILEV-PODOL'SKIJ", "state": "KI UR", "lat":  48.450, "lon":   27.780, "elev": 79},
"33791": {"id": "", "name": "KRYVYI RIH", "state": "KI UR", "lat":  48.030, "lon":   33.220, "elev": 124},
"33805": {"id": "", "name": "NIKOPOL'", "state": "KV UR", "lat":  47.580, "lon":   34.400, "elev": 56},
"33815": {"id": "UKII", "name": "KISHINEV", "state": "KI UR", "lat":  47.020, "lon":   28.870, "elev": 180},
"33837": {"id": "UKOO", "name": "ODESSA/TSENTRALNY", "state": "KI UR", "lat":  46.430, "lon":   30.770, "elev": 35},
"33877": {"id": "", "name": "NIZNIE SEROGOZY", "state": "KI UR", "lat":  46.850, "lon":   34.400, "elev": 54},
"33945": {"id": "", "name": "POCTOVOE", "state": "KI UR", "lat":  44.830, "lon":   33.950, "elev": 170},
"33946": {"id": "UKFF", "name": "SIMFEROPOL'", "state": "KI UR", "lat":  44.680, "lon":   34.130, "elev": 181},
"33966": {"id": "", "name": "KRYMSKAYA", "state": "KI UR", "lat":  45.050, "lon":   34.600, "elev": 183},
"34009": {"id": "", "name": "KURSK", "state": "MS RS", "lat":  51.770, "lon":   36.170, "elev": 247},
"34072": {"id": "", "name": "KARABULAK", "state": "MS RS", "lat":  52.330, "lon":   46.370, "elev": 292},
"34122": {"id": "UUOO", "name": "VORONEZ", "state": "MS RS", "lat":  51.700, "lon":   39.170, "elev": 154},
"34172": {"id": "UWSS", "name": "SARATOV", "state": "MS RS", "lat":  51.570, "lon":   46.030, "elev": 156},
"34247": {"id": "", "name": "KALAC", "state": "MS RS", "lat":  50.420, "lon":   41.050, "elev": 93},
"34300": {"id": "UKHH", "name": "KHARKOV", "state": "KI UR", "lat":  49.970, "lon":   36.130, "elev": 155},
"34467": {"id": "", "name": "VOLOGRAD", "state": "TB RS", "lat":  48.780, "lon":   44.330, "elev": 141},
"34560": {"id": "URWW", "name": "VOLGOGRAD", "state": "TB RS", "lat":  48.680, "lon":   44.350, "elev": 145},
"34731": {"id": "URRR", "name": "ROSTOV-NA-DONU", "state": "TB RS", "lat":  47.250, "lon":   39.820, "elev": 77},
"34737": {"id": "", "name": "KUSCEVSKAJA", "state": "TB RS", "lat":  46.570, "lon":   39.630, "elev": 14},
"34772": {"id": "", "name": "YUSTA", "state": "TB RS", "lat":  47.120, "lon":   46.300, "elev": 2},
"34838": {"id": "", "name": "TIHORECK", "state": "TB RS", "lat":  45.850, "lon":   40.080, "elev": 79},
"34858": {"id": "", "name": "DIVNOE", "state": "TB RS", "lat":  46.920, "lon":   45.350, "elev": 77},
"34880": {"id": "", "name": "ASTRAHAN", "state": "TB RS", "lat":  46.270, "lon":   48.030, "elev": -22},
"34882": {"id": "", "name": "ASTRAHAN'", "state": "TB RS", "lat":  46.280, "lon":   47.980, "elev": -17},
"35108": {"id": "UARR", "name": "URALSK", "state": "AL RA", "lat":  51.250, "lon":   51.400, "elev": 36},
"35121": {"id": "UWOO", "name": "ORENBURG", "state": "AL RA", "lat":  51.780, "lon":   55.220, "elev": 109},
"35225": {"id": "", "name": "MARTUK", "state": "AL RA", "lat":  50.750, "lon":   56.530, "elev": 178},
"35229": {"id": "UATT", "name": "AKTJUBINSK", "state": "AL RA", "lat":  50.300, "lon":   57.230, "elev": 227},
"35361": {"id": "", "name": "AMANGELDY", "state": "AL RA", "lat":  50.130, "lon":   65.230, "elev": 142},
"35394": {"id": "", "name": "KARAGANDA", "state": "AL RA", "lat":  49.800, "lon":   73.130, "elev": 555},
"35671": {"id": "", "name": "DZEZKAZGAN", "state": "AL RA", "lat":  47.800, "lon":   67.720, "elev": 345},
"35700": {"id": "", "name": "GUR'EV", "state": "AL RA", "lat":  47.020, "lon":   51.850, "elev": -15},
"35746": {"id": "UATA", "name": "ARALSK", "state": "AL RA", "lat":  46.780, "lon":   61.670, "elev": 56},
"35796": {"id": "", "name": "BALHAS", "state": "AL RA", "lat":  46.900, "lon":   75.000, "elev": 352},
"36003": {"id": "", "name": "PAVLODAR", "state": "AL RA", "lat":  52.280, "lon":   76.950, "elev": 123},
"36096": {"id": "", "name": "KYZYL", "state": "NO RA", "lat":  51.700, "lon":   94.450, "elev": 629},
"36177": {"id": "", "name": "SEMIPALATINSK", "state": "AL RA", "lat":  50.350, "lon":   80.250, "elev": 196},
"36770": {"id": "", "name": "MULALY", "state": "AL RA", "lat":  45.450, "lon":   78.230, "elev": 564},
"36859": {"id": "", "name": "PANFILOV", "state": "AL RA", "lat":  44.170, "lon":   80.070, "elev": 640},
"36870": {"id": "UAAA", "name": "ALMA-ATA", "state": "AL RA", "lat":  43.230, "lon":   76.930, "elev": 847},
"36872": {"id": "", "name": "ALMATY", "state": "AL RA", "lat":  43.350, "lon":   77.000, "elev": 662},
"36974": {"id": "", "name": "NARYN (MTN STN)", "state": "TA RA", "lat":  41.430, "lon":   76.000, "elev": 2041},
"37011": {"id": "", "name": "TUAPSE", "state": "TB RS", "lat":  44.100, "lon":   39.030, "elev": 52},
"37018": {"id": "", "name": "TUAPSE (STREAM)", "state": "TB RS", "lat":  44.100, "lon":   39.070, "elev": 41},
"37054": {"id": "URMM", "name": "MINERALYNE VODY", "state": "TB RS", "lat":  44.220, "lon":   43.100, "elev": 314},
"37055": {"id": "URMM", "name": "MINERALYNE VODY'", "state": "TB RS", "lat":  44.220, "lon":   43.100, "elev": 321},
"37099": {"id": "", "name": "RAZDOL'NOYE SOCI", "state": "TB RS", "lat":  43.580, "lon":   39.760, "elev": 57},
"37259": {"id": "", "name": "MAHACHKALA", "state": "TB RS", "lat":  43.020, "lon":   47.480, "elev": 19},
"37260": {"id": "", "name": "SUHUMI", "state": "TB RS", "lat":  42.870, "lon":   41.130, "elev": 13},
"37395": {"id": "", "name": "KUTAISI", "state": "TB RS", "lat":  42.270, "lon":   42.630, "elev": 116},
"37472": {"id": "", "name": "MAHACKALA", "state": "TB RS", "lat":  43.020, "lon":   47.430, "elev": 6},
"37484": {"id": "", "name": "BATUMI (BAY)", "state": "TB RS", "lat":  41.650, "lon":   41.630, "elev": 6},
"37507": {"id": "", "name": "ADIGENI", "state": "TB RS", "lat":  41.700, "lon":   42.700, "elev": 1185},
"37545": {"id": "", "name": "TBILISI", "state": "TB RS", "lat":  41.700, "lon":   44.750, "elev": 403},
"37549": {"id": "UGGG", "name": "TBILISI/NOVOALEXEYE", "state": "TB RS", "lat":  41.680, "lon":   44.950, "elev": 467},
"37750": {"id": "", "name": "ISMAILLY", "state": "TB RS", "lat":  40.780, "lon":   48.130, "elev": 550},
"37789": {"id": "UGEE", "name": "YEREVAN/ZVARTNOTS", "state": "TB RS", "lat":  40.130, "lon":   44.470, "elev": 890},
"37860": {"id": "", "name": "MASHTAGA", "state": "TB RS", "lat":  40.530, "lon":   50.000, "elev": 28},
"37936": {"id": "", "name": "NAKHICHEVAN", "state": "TB RS", "lat":  39.200, "lon":   45.420, "elev": 875},
"37985": {"id": "", "name": "LENKORAN'", "state": "TB RS", "lat":  38.730, "lon":   48.830, "elev": 11},
"37989": {"id": "", "name": "ASTRARA", "state": "TB RS", "lat":  38.450, "lon":   48.880, "elev": 21},
"38062": {"id": "UAOO", "name": "KZYL-ORDA", "state": "AL RA", "lat":  44.770, "lon":   65.530, "elev": 129},
"38064": {"id": "", "name": "KYSYLORDA", "state": "AL RA", "lat":  44.770, "lon":   65.520, "elev": 133},
"38341": {"id": "", "name": "DZAMBUL", "state": "AL RA", "lat":  42.850, "lon":   71.380, "elev": 653},
"38343": {"id": "", "name": "LUGOVAJA", "state": "AL RA", "lat":  45.950, "lon":   72.750, "elev": 683},
"38352": {"id": "", "name": "BELOVODSKOE", "state": "TA RA", "lat":  42.850, "lon":   74.100, "elev": 726},
"38353": {"id": "UAFF", "name": "FRUNZE", "state": "TA RA", "lat":  42.850, "lon":   74.530, "elev": 760},
"38358": {"id": "", "name": "SUSAMYR", "state": "TA RA", "lat":  42.150, "lon":   73.980, "elev": 2092},
"38388": {"id": "", "name": "EKEDGE", "state": "TA RA", "lat":  41.030, "lon":   57.770, "elev": 62},
"38392": {"id": "", "name": "DASHKHOVUZ", "state": "TA RA", "lat":  41.830, "lon":   59.980, "elev": 88},
"38413": {"id": "UTSM", "name": "TAMDY-BULAK", "state": "TA RA", "lat":  41.730, "lon":   64.620, "elev": 238},
"38457": {"id": "UTTT", "name": "TASKENT/YUZNI", "state": "TA RA", "lat":  41.270, "lon":   69.270, "elev": 489},
"38507": {"id": "", "name": "KRASNOVODSK", "state": "TA RA", "lat":  40.030, "lon":   52.980, "elev": 89},
"38606": {"id": "", "name": "KOKAND", "state": "TA RA", "lat":  40.550, "lon":   70.950, "elev": 405},
"38613": {"id": "", "name": "DZALAL-ABAD", "state": "TA RA", "lat":  40.920, "lon":   72.950, "elev": 765},
"38687": {"id": "", "name": "CARDZOU", "state": "TA RA", "lat":  39.080, "lon":   63.600, "elev": 193},
"38750": {"id": "", "name": "GASAN-KULI", "state": "TA RA", "lat":  37.470, "lon":   53.970, "elev": -23},
"38755": {"id": "", "name": "BYGDAILI", "state": "TA RA", "lat":  38.530, "lon":   54.300, "elev": 1},
"38836": {"id": "UTDD", "name": "DUSANBE", "state": "TA RA", "lat":  38.550, "lon":   68.780, "elev": 803},
"38878": {"id": "", "name": "MURGAB", "state": "TA RA", "lat":  38.170, "lon":   73.980, "elev": 3576},
"38880": {"id": "", "name": "ASHABAD", "state": "TA RA", "lat":  37.970, "lon":   58.330, "elev": 210},
"38927": {"id": "UTST", "name": "TERMEZ", "state": "TA RA", "lat":  37.230, "lon":   67.270, "elev": 302},
"38954": {"id": "", "name": "KHOROG", "state": "TA RA", "lat":  37.500, "lon":   71.500, "elev": 2080},
"38989": {"id": "", "name": "TAHTA-BAZAR", "state": "TA RA", "lat":  35.920, "lon":   62.920, "elev": 349},
"40007": {"id": "OSAP", "name": "ALEPPO (CIV/MIL)", "state": "SY", "lat":  36.180, "lon":   37.220, "elev": 393},
"40039": {"id": "", "name": "RAQQA", "state": "SY", "lat":  35.930, "lon":   39.020, "elev": 245},
"40041": {"id": "", "name": "AL-RASTAN", "state": "SY", "lat":  34.930, "lon":   36.730, "elev": 450},
"40080": {"id": "OSDI", "name": "DAMASCUS (CIV/MIL)", "state": "SY", "lat":  33.420, "lon":   36.520, "elev": 609},
"40100": {"id": "OLBA", "name": "BEIRUT (CIV/MIL)", "state": "LB", "lat":  33.820, "lon":   35.480, "elev": 19},
"40155": {"id": "LLHA", "name": "HAIFA (ISR-AFB)", "state": "IS", "lat":  32.470, "lon":   35.010, "elev": 8},
"40165": {"id": "", "name": "HAIFA/R.DAVID", "state": "IS", "lat":  32.670, "lon":   35.180, "elev": 51},
"40179": {"id": "", "name": "BET DAGAN", "state": "IS", "lat":  32.000, "lon":   34.820, "elev": 30},
"40180": {"id": "LLBG", "name": "BEN-GURION (CIV/MIL)", "state": "IS", "lat":  32.000, "lon":   34.530, "elev": 49},
"40186": {"id": "", "name": "ASHDOD NORTH", "state": "IS", "lat":  31.870, "lon":   34.680, "elev": 20},
"40191": {"id": "LLBS", "name": "BEER-SHEVA/TEYMA", "state": "IS", "lat":  31.170, "lon":   34.430, "elev": 200},
"40198": {"id": "LLOV", "name": "OVDA (ISR-AFB/CIV)", "state": "IS", "lat":  29.560, "lon":   34.560, "elev": 432},
"40199": {"id": "LLET", "name": "ELAT/J. HOZMAN", "state": "IS", "lat":  29.550, "lon":   34.950, "elev": 12},
"40265": {"id": "OJMF", "name": "MAFRAQ (JOR-AFB)", "state": "JD", "lat":  32.370, "lon":   36.270, "elev": 687},
"40290": {"id": "LLJR", "name": "JERUSALEM/ATAROT", "state": "IS", "lat":  31.520, "lon":   35.130, "elev": 759},
"40373": {"id": "OEPA", "name": "HAFR AL-BATIN ARPT", "state": "SD", "lat":  28.330, "lon":   46.120, "elev": 355},
"40375": {"id": "OETB", "name": "TABUK (SAUD-AFB)", "state": "SD", "lat":  28.370, "lon":   36.580, "elev": 770},
"40376": {"id": "", "name": "TAYMA (AUT)", "state": "SD", "lat":  27.600, "lon":   38.600, "elev": 860},
"40394": {"id": "OEHL", "name": "HAIL", "state": "SD", "lat":  27.520, "lon":   41.730, "elev": 1013},
"40400": {"id": "", "name": "EL WEJH", "state": "SD", "lat":  26.230, "lon":   36.430, "elev": 22},
"40416": {"id": "OEDR", "name": "DHAHRAN INTL ARPT", "state": "SD", "lat":  26.270, "lon":   50.150, "elev": 17},
"40417": {"id": "OEDF", "name": "KING FAHAD INTERNATIONAL", "state": "SD", "lat":  26.450, "lon":   49.820, "elev": 12},
"40420": {"id": "OEAH", "name": "AL AHSA", "state": "SD", "lat":  25.280, "lon":   49.480, "elev": 172},
"40421": {"id": "", "name": "HUFUF (AUT)", "state": "SD", "lat":  25.300, "lon":   49.700, "elev": 151},
"40430": {"id": "OEMA", "name": "MADINAH INTL ARPT", "state": "SD", "lat":  24.550, "lon":   39.720, "elev": 631},
"40435": {"id": "OEDW", "name": "DAWADMI", "state": "SD", "lat":  24.500, "lon":   44.400, "elev": 990},
"40437": {"id": "OERK", "name": "RIYADH/KING KHALID", "state": "SD", "lat":  24.930, "lon":   46.720, "elev": 612},
"40438": {"id": "OERY", "name": "RIYADH (SAUD-AFB)", "state": "SD", "lat":  24.720, "lon":   46.720, "elev": 612},
"40495": {"id": "", "name": "SULAYEL/ASSULAYYIL", "state": "SD", "lat":  20.470, "lon":   45.670, "elev": 617},
"40582": {"id": "OKBK", "name": "KUWAIT INTERNATIONAL", "state": "KW", "lat":  29.220, "lon":   47.980, "elev": 55},
"40585": {"id": "", "name": "AL SHUAIBA", "state": "KW", "lat":  29.030, "lon":   48.150, "elev": 6},
"40594": {"id": "", "name": "AL-NWAISEEB", "state": "KW", "lat":  28.500, "lon":   48.470, "elev": 3},
"40608": {"id": "", "name": "MOSUL", "state": "IQ", "lat":  36.320, "lon":   43.150, "elev": 222},
"40642": {"id": "", "name": "RUTBA", "state": "IQ", "lat":  33.030, "lon":   40.280, "elev": 615},
"40648": {"id": "ORBH", "name": "HABBANIYA (IRQ-AFB)", "state": "IQ", "lat":  33.370, "lon":   43.570, "elev": 45},
"40650": {"id": "ORBB", "name": "BAGDAD/SIRSENK", "state": "IQ", "lat":  33.230, "lon":   44.230, "elev": 34},
"40676": {"id": "", "name": "NASIRIYA", "state": "IQ", "lat":  31.080, "lon":   46.230, "elev": 3},
"40688": {"id": "ORMS", "name": "SHAIBAH/BASRAH", "state": "IQ", "lat":  30.420, "lon":   47.650, "elev": 19},
"40698": {"id": "", "name": "BASRA", "state": "IQ", "lat":  30.570, "lon":   47.780, "elev": 2},
"40701": {"id": "", "name": "MAKKO", "state": "IR", "lat":  39.330, "lon":   44.430, "elev": 1470},
"40706": {"id": "OITT", "name": "TABRIZ(IRAN-AB/CIV)", "state": "IR", "lat":  38.080, "lon":   46.280, "elev": 1361},
"40710": {"id": "", "name": "SARAB", "state": "IR", "lat":  37.930, "lon":   47.530, "elev": 1500},
"40745": {"id": "OIMM", "name": "MASHHAD (AFB/CIV)", "state": "IR", "lat":  36.270, "lon":   59.630, "elev": 980},
"40747": {"id": "OICS", "name": "SANANDAJ", "state": "IR", "lat":  35.330, "lon":   47.000, "elev": 1373},
"40754": {"id": "OIII", "name": "TEHRAN/MEHRABAD AFB", "state": "IR", "lat":  35.680, "lon":   51.350, "elev": 1191},
"40765": {"id": "OICG", "name": "GHASRE-SHIRIN", "state": "IR", "lat":  34.520, "lon":   45.580, "elev": 378},
"40766": {"id": "OICC", "name": "KERMANSHAH/BAKTARAN", "state": "IR", "lat":  34.270, "lon":   47.120, "elev": 1322},
"40780": {"id": "", "name": "ILAM", "state": "IR", "lat":  33.630, "lon":   46.420, "elev": 1363},
"40789": {"id": "", "name": "KHOR", "state": "IR", "lat":  33.780, "lon":   55.080, "elev": 921},
"40791": {"id": "OIMT", "name": "TABAS", "state": "IR", "lat":  33.600, "lon":   56.920, "elev": 711},
"40794": {"id": "", "name": "SAFI/ABAD DEZFU", "state": "IR", "lat":  32.270, "lon":   48.430, "elev": 82},
"40795": {"id": "", "name": "VAHDATI AFB", "state": "IR", "lat":  32.430, "lon":   48.400, "elev": 152},
"40800": {"id": "OIFM", "name": "ESFAHAN (CIV/AFB)", "state": "IR", "lat":  32.620, "lon":   51.670, "elev": 1590},
"40809": {"id": "OIMB", "name": "BIRJAND", "state": "IR", "lat":  32.870, "lon":   59.200, "elev": 1491},
"40811": {"id": "OIAW", "name": "AHWAZ", "state": "IR", "lat":  31.200, "lon":   48.400, "elev": 22},
"40821": {"id": "OIYY", "name": "YAZD", "state": "IR", "lat":  31.900, "lon":   54.280, "elev": 1230},
"40841": {"id": "OIKK", "name": "KERMAN", "state": "IR", "lat":  30.250, "lon":   56.970, "elev": 1754},
"40848": {"id": "OISS", "name": "SHIRAZ (CIV/AFB)", "state": "IR", "lat":  29.530, "lon":   52.580, "elev": 1491},
"40851": {"id": "", "name": "SIRJAN", "state": "IR", "lat":  29.470, "lon":   55.720, "elev": 1739},
"40856": {"id": "OIZH", "name": "ZAHEDAN/INTL", "state": "IR", "lat":  29.470, "lon":   60.880, "elev": 1370},
"40875": {"id": "OIKB", "name": "BANDAR ABBAS INTL", "state": "IR", "lat":  27.220, "lon":   56.370, "elev": 10},
"40879": {"id": "OIZI", "name": "IRANSHAHR", "state": "IR", "lat":  27.200, "lon":   60.700, "elev": 591},
"40911": {"id": "", "name": "MAZAR-I-SHARIF", "state": "AF", "lat":  42.700, "lon":   67.200, "elev": 378},
"40938": {"id": "", "name": "HERAT", "state": "AF", "lat":  34.220, "lon":   62.220, "elev": 964},
"40948": {"id": "KBLO", "name": "KABUL AIRPORT", "state": "AF", "lat":  34.330, "lon":   69.130, "elev": 1791},
"40990": {"id": "", "name": "KANDAHAR AIRPORT", "state": "AF", "lat":  31.500, "lon":   65.850, "elev": 1010},
"41014": {"id": "", "name": "OBAYLAH (AUT)", "state": "SD", "lat":  22.220, "lon":   50.880, "elev": 588},
"41024": {"id": "OEJN", "name": "JEDDAH/ABDUL AZIZ", "state": "SD", "lat":  21.670, "lon":   39.150, "elev": 12},
"41112": {"id": "OEAB", "name": "ABHA", "state": "SD", "lat":  18.230, "lon":   42.650, "elev": 2084},
"41114": {"id": "OEKM", "name": "KHAMIS MUSHAIT AFB", "state": "SD", "lat":  18.300, "lon":   42.800, "elev": 2054},
"41141": {"id": "", "name": "GIZAN (AUT)", "state": "SD", "lat":  16.900, "lon":   42.500, "elev": 6},
"41170": {"id": "OTBD", "name": "DOHA INTL AIRPORT", "state": "QT", "lat":  25.250, "lon":   51.570, "elev": 10},
"41181": {"id": "OMRK", "name": "RAS AL KHAIMAH", "state": "ER", "lat":  25.620, "lon":   55.930, "elev": 31},
"41217": {"id": "OMAA", "name": "ABU DHABI INTL", "state": "ER", "lat":  24.430, "lon":   54.650, "elev": 27},
"41218": {"id": "OMAL", "name": "AL AIN INTL AIRPORT", "state": "ER", "lat":  24.250, "lon":   55.600, "elev": 262},
"41254": {"id": "OOSQ", "name": "SAIQ", "state": "OM", "lat":  23.070, "lon":   57.650, "elev": 1755},
"41256": {"id": "OOMS", "name": "SEEB INTL/MUSCAT", "state": "OM", "lat":  23.580, "lon":   58.280, "elev": 8},
"41288": {"id": "", "name": "MASIRAH", "state": "OM", "lat":  20.680, "lon":   58.900, "elev": 21},
"41316": {"id": "OOSA", "name": "SALALAH", "state": "OM", "lat":  17.030, "lon":   54.080, "elev": 20},
"41344": {"id": "", "name": "SANA'A (CIV/MIL)", "state": "YE", "lat":  15.520, "lon":   44.180, "elev": 2190},
"41404": {"id": "OYSN", "name": "SANA'A", "state": "YE", "lat":  15.380, "lon":   44.200, "elev": 2190},
"41414": {"id": "", "name": "THAMUD", "state": "YE", "lat":  17.370, "lon":   50.950, "elev": 610},
"41416": {"id": "", "name": "KAMARAN", "state": "YE", "lat":  15.370, "lon":    4.420, "elev": 15},
"41437": {"id": "OYAT", "name": "ATAQ", "state": "DY", "lat":  14.550, "lon":   46.830, "elev": 1067},
"41480": {"id": "OYAA", "name": "ADEN INTL ARPT", "state": "DY", "lat":  12.670, "lon":   45.030, "elev": 3},
"41506": {"id": "", "name": "CHITRAL", "state": "PK", "lat":  35.850, "lon":   71.830, "elev": 1494},
"41508": {"id": "", "name": "DIR", "state": "PK", "lat":  35.200, "lon":   71.850, "elev": 1370},
"41515": {"id": "", "name": "DROSH", "state": "PK", "lat":  35.400, "lon":   71.780, "elev": 1480},
"41529": {"id": "", "name": "PESHAWAR", "state": "PK", "lat":  34.030, "lon":   71.930, "elev": 329},
"41530": {"id": "OPPS", "name": "PESHAWAR (CIV/MIL)", "state": "PK", "lat":  34.020, "lon":   71.580, "elev": 360},
"41531": {"id": "", "name": "BATTAL", "state": "PK", "lat":  34.580, "lon":   73.150, "elev": 1676},
"41560": {"id": "", "name": "PARACHINAR", "state": "PK", "lat":  33.870, "lon":   70.080, "elev": 1728},
"41571": {"id": "", "name": "CHAKLALA", "state": "PK", "lat":  33.620, "lon":   73.100, "elev": 509},
"41593": {"id": "", "name": "SARGODHA (PAK-AFB)", "state": "PK", "lat":  32.050, "lon":   72.670, "elev": 187},
"41594": {"id": "OPSR", "name": "SARGODHA (PAK-AFB)", "state": "PK", "lat":  32.050, "lon":   72.670, "elev": 188},
"41598": {"id": "", "name": "JHELUM", "state": "PK", "lat":  32.930, "lon":   73.720, "elev": 233},
"41620": {"id": "", "name": "FORT SANDEMAN", "state": "PK", "lat":  31.350, "lon":   69.470, "elev": 1405},
"41624": {"id": "", "name": "DERA ISMAIL KHAN", "state": "PK", "lat":  31.820, "lon":   70.920, "elev": 174},
"41640": {"id": "OPLH", "name": "LAHORE/WALTON", "state": "PK", "lat":  31.550, "lon":   74.330, "elev": 215},
"41661": {"id": "", "name": "QUETTA BREWERY", "state": "PK", "lat":  30.270, "lon":   66.920, "elev": 1621},
"41675": {"id": "OPMT", "name": "MULTAN", "state": "PK", "lat":  30.200, "lon":   71.430, "elev": 123},
"41685": {"id": "", "name": "BARKHAN", "state": "PK", "lat":  29.880, "lon":   69.720, "elev": 1097},
"41710": {"id": "", "name": "NOKKUNDI", "state": "PK", "lat":  28.820, "lon":   62.750, "elev": 683},
"41712": {"id": "", "name": "DALBANDIN", "state": "PK", "lat":  28.880, "lon":   64.400, "elev": 849},
"41715": {"id": "", "name": "JACOBABAD", "state": "PK", "lat":  28.300, "lon":   68.470, "elev": 56},
"41718": {"id": "", "name": "KHABPUR", "state": "PK", "lat":  28.650, "lon":   70.680, "elev": 87},
"41739": {"id": "", "name": "PANJGUR", "state": "PK", "lat":  26.970, "lon":   64.100, "elev": 981},
"41744": {"id": "", "name": "KHUZDAR", "state": "PK", "lat":  27.830, "lon":   66.630, "elev": 1225},
"41749": {"id": "", "name": "NAWABSHAH", "state": "PK", "lat":  26.250, "lon":   68.370, "elev": 37},
"41756": {"id": "", "name": "JIWANI", "state": "PK", "lat":  25.040, "lon":   61.480, "elev": 57},
"41768": {"id": "", "name": "CHHOR", "state": "PK", "lat":  25.520, "lon":   69.780, "elev": 6},
"41780": {"id": "OPKC", "name": "KARACHI INTL ARPT", "state": "PK", "lat":  24.900, "lon":   67.130, "elev": 22},
"41859": {"id": "", "name": "RANGPUR", "state": "BW", "lat":  25.730, "lon":   89.230, "elev": 34},
"41883": {"id": "", "name": "BOGRA", "state": "BW", "lat":  24.850, "lon":   89.370, "elev": 20},
"41891": {"id": "", "name": "SYLHET", "state": "BW", "lat":  24.900, "lon":   91.880, "elev": 35},
"41895": {"id": "VGRJ", "name": "RAJSHAHI", "state": "BW", "lat":  24.370, "lon":   88.700, "elev": 20},
"41907": {"id": "VGIS", "name": "ISHURDI", "state": "BW", "lat":  24.130, "lon":   89.050, "elev": 14},
"41909": {"id": "", "name": "TANGAIL", "state": "BW", "lat":  24.250, "lon":   89.930, "elev": 56},
"41923": {"id": "", "name": "COMILLA", "state": "BW", "lat":  23.430, "lon":   91.180, "elev": 9},
"41929": {"id": "", "name": "FARODPUR", "state": "BW", "lat":  23.600, "lon":   89.850, "elev": 9},
"41936": {"id": "", "name": "JESSORE", "state": "BW", "lat":  23.110, "lon":   89.100, "elev": 7},
"41943": {"id": "", "name": "FENI", "state": "BW", "lat":  23.030, "lon":   91.420, "elev": 8},
"41950": {"id": "", "name": "BARISAL", "state": "BW", "lat":  22.750, "lon":   90.370, "elev": 4},
"41977": {"id": "", "name": "CHITTAGONG/AMBAGAN", "state": "BW", "lat":  22.350, "lon":   91.820, "elev": 34},
"41992": {"id": "", "name": "COX'S BAZAR", "state": "BW", "lat":  21.430, "lon":   91.930, "elev": 4},
"42027": {"id": "", "name": "SRINAGAR", "state": "IN", "lat":  34.080, "lon":   74.830, "elev": 1587},
"42056": {"id": "", "name": "JAMMU", "state": "IN", "lat":  32.670, "lon":   74.830, "elev": 323},
"42079": {"id": "", "name": "SUNDERNAGAR", "state": "IN", "lat":  31.530, "lon":   76.900, "elev": 875},
"42097": {"id": "", "name": "BHATINDA", "state": "IN", "lat":  30.170, "lon":   74.580, "elev": 211},
"42101": {"id": "", "name": "PATIALA", "state": "IN", "lat":  30.330, "lon":   76.470, "elev": 251},
"42103": {"id": "", "name": "AMBALA", "state": "IN", "lat":  30.380, "lon":   76.770, "elev": 272},
"42107": {"id": "", "name": "DHARMPUR", "state": "IN", "lat":  30.900, "lon":   77.020, "elev": 1986},
"42111": {"id": "", "name": "DEHRA DUN", "state": "IN", "lat":  30.320, "lon":   78.030, "elev": 682},
"42112": {"id": "", "name": "MUSSOORIE", "state": "IN", "lat":  30.450, "lon":   78.080, "elev": 2042},
"42114": {"id": "", "name": "TEHRI", "state": "IN", "lat":  30.400, "lon":   78.480, "elev": 29},
"42117": {"id": "", "name": "CHAMOLI", "state": "IN", "lat":  30.400, "lon":   79.330, "elev": 20},
"42123": {"id": "", "name": "GANGANAGAR", "state": "IN", "lat":  29.920, "lon":   73.920, "elev": 177},
"42131": {"id": "VIHR", "name": "HISSAR", "state": "IN", "lat":  29.170, "lon":   75.730, "elev": 221},
"42147": {"id": "", "name": "MUKTESHWAR KUMA", "state": "IN", "lat":  29.470, "lon":   79.650, "elev": 2311},
"42165": {"id": "", "name": "BIKANER", "state": "IN", "lat":  28.000, "lon":   73.300, "elev": 224},
"42170": {"id": "", "name": "CHURU", "state": "IN", "lat":  28.250, "lon":   74.920, "elev": 286},
"42181": {"id": "VIDP", "name": "INDIRA GANDHI", "state": "IN", "lat":  28.570, "lon":   77.120, "elev": 233},
"42182": {"id": "VIDD", "name": "DELHI/SAFDARJUNG", "state": "IN", "lat":  28.580, "lon":   77.200, "elev": 216},
"42187": {"id": "", "name": "MORADABAD", "state": "IN", "lat":  28.830, "lon":   78.750, "elev": 202},
"42188": {"id": "", "name": "RAMPUR", "state": "IN", "lat":  28.750, "lon":   79.000, "elev": 191},
"42189": {"id": "", "name": "BAREILLY", "state": "IN", "lat":  28.360, "lon":   79.400, "elev": 173},
"42260": {"id": "", "name": "AGRA/VIAG", "state": "IN", "lat":  27.160, "lon":   77.960, "elev": 168},
"42273": {"id": "", "name": "BAHRAICH", "state": "IN", "lat":  27.570, "lon":   81.600, "elev": 124},
"42282": {"id": "", "name": "NAUTANWA", "state": "IN", "lat":  27.430, "lon":   83.420, "elev": 98},
"42299": {"id": "", "name": "GANGTOK", "state": "IN", "lat":  27.330, "lon":   88.620, "elev": 1756},
"42314": {"id": "VEMN", "name": "DIBRUGARH/MOHANBARI", "state": "IN", "lat":  27.480, "lon":   95.020, "elev": 111},
"42328": {"id": "", "name": "JAISALMER", "state": "IN", "lat":  26.900, "lon":   70.920, "elev": 257},
"42339": {"id": "VIJO", "name": "JODHPUR (IN-AFB)", "state": "IN", "lat":  26.300, "lon":   73.020, "elev": 224},
"42348": {"id": "", "name": "JAIPUR", "state": "IN", "lat":  26.820, "lon":   75.800, "elev": 390},
"42361": {"id": "VIGR", "name": "GWALIOR (IN-AFB)", "state": "IN", "lat":  26.230, "lon":   78.250, "elev": 207},
"42364": {"id": "", "name": "ETAWAH", "state": "IN", "lat":  26.450, "lon":   79.020, "elev": 151},
"42367": {"id": "VICX", "name": "KANPUR/CHAKERI", "state": "IN", "lat":  26.400, "lon":   80.400, "elev": 126},
"42368": {"id": "", "name": "LUCKNOW", "state": "IN", "lat":  26.870, "lon":   80.930, "elev": 110},
"42369": {"id": "VILK", "name": "LUCKNOW/AMAUSI", "state": "IN", "lat":  26.750, "lon":   80.880, "elev": 128},
"42375": {"id": "", "name": "SULTANPUR", "state": "IN", "lat":  26.250, "lon":   82.000, "elev": 97},
"42379": {"id": "VEGK", "name": "GORAKHPUR (IN-AFB)", "state": "IN", "lat":  26.750, "lon":   83.370, "elev": 77},
"42393": {"id": "", "name": "SUPAUL", "state": "IN", "lat":  26.130, "lon":   86.580, "elev": 50},
"42397": {"id": "", "name": "SILIGURI", "state": "IN", "lat":  26.670, "lon":   88.370, "elev": 123},
"42398": {"id": "VEBD", "name": "BAGHDOGRA (IN-AFB)", "state": "IN", "lat":  26.630, "lon":   88.320, "elev": 131},
"42399": {"id": "", "name": "JALPAIGURI", "state": "IN", "lat":  26.530, "lon":   88.720, "elev": 81},
"42409": {"id": "", "name": "TANGLA", "state": "IN", "lat":  26.650, "lon":   91.920, "elev": 65},
"42410": {"id": "VEGT", "name": "GAUHATI (IN-AFB)", "state": "IN", "lat":  26.100, "lon":   91.580, "elev": 54},
"42420": {"id": "", "name": "GOLAGHAT", "state": "IN", "lat":  26.520, "lon":   93.980, "elev": 95},
"42435": {"id": "", "name": "BARMER", "state": "IN", "lat":  25.750, "lon":   71.380, "elev": 193},
"42447": {"id": "", "name": "BHILWARA", "state": "IN", "lat":  25.350, "lon":   74.630, "elev": 425},
"42452": {"id": "VIKO", "name": "KOTA AERODROME", "state": "IN", "lat":  25.150, "lon":   75.850, "elev": 274},
"42474": {"id": "", "name": "ALLAHABAD", "state": "IN", "lat":  25.450, "lon":   81.730, "elev": 98},
"42475": {"id": "", "name": "ALLAHABAD/BAMRAULI", "state": "IN", "lat":  25.450, "lon":   81.730, "elev": 98},
"42492": {"id": "VEPT", "name": "PATNA", "state": "IN", "lat":  25.600, "lon":   85.100, "elev": 60},
"42498": {"id": "", "name": "BHAGALPUR", "state": "IN", "lat":  25.230, "lon":   86.950, "elev": 49},
"42539": {"id": "", "name": "DEESA", "state": "IN", "lat":  24.200, "lon":   72.200, "elev": 136},
"42542": {"id": "", "name": "UDAIPUR", "state": "IN", "lat":  24.610, "lon":   73.880, "elev": 514},
"42543": {"id": "", "name": "UDAIPUR", "state": "IN", "lat":  24.580, "lon":   73.700, "elev": 582},
"42571": {"id": "VIST", "name": "SATNA", "state": "IN", "lat":  24.570, "lon":   80.830, "elev": 317},
"42591": {"id": "", "name": "GAVA", "state": "IN", "lat":  24.750, "lon":   84.950, "elev": 116},
"42623": {"id": "", "name": "IMPHAL", "state": "IN", "lat":  24.670, "lon":   93.900, "elev": 774},
"42634": {"id": "", "name": "BHUJ", "state": "IN", "lat":  23.250, "lon":   69.670, "elev": 80},
"42647": {"id": "VAAH", "name": "AHMADABAD", "state": "IN", "lat":  23.070, "lon":   72.630, "elev": 55},
"42667": {"id": "VABP", "name": "BHOPAL/BAIRAGARH", "state": "IN", "lat":  23.280, "lon":   77.350, "elev": 523},
"42675": {"id": "", "name": "JABALPUR", "state": "IN", "lat":  23.160, "lon":   79.950, "elev": 393},
"42701": {"id": "VERC", "name": "RANCHI", "state": "IN", "lat":  23.320, "lon":   85.320, "elev": 652},
"42706": {"id": "", "name": "BANKURA", "state": "IN", "lat":  23.380, "lon":   87.080, "elev": 99},
"42709": {"id": "", "name": "BURDWAN", "state": "IN", "lat":  23.230, "lon":   87.850, "elev": 30},
"42724": {"id": "VEAT", "name": "AGARTALA", "state": "IN", "lat":  23.880, "lon":   91.250, "elev": 16},
"42767": {"id": "", "name": "PACHMARHI", "state": "IN", "lat":  22.470, "lon":   78.430, "elev": 1061},
"42798": {"id": "VEJS", "name": "JAMSHEDPUR", "state": "IN", "lat":  22.810, "lon":   86.180, "elev": 142},
"42805": {"id": "", "name": "ULUBERIA", "state": "IN", "lat":  22.500, "lon":   87.950, "elev": 57},
"42807": {"id": "", "name": "CALCUTTA AIRPORT", "state": "IN", "lat":  22.530, "lon":   88.330, "elev": 5},
"42809": {"id": "VECC", "name": "CALCUTTA/DUM DUM", "state": "IN", "lat":  22.650, "lon":   88.450, "elev": 6},
"42830": {"id": "", "name": "PORBANDAR", "state": "IN", "lat":  21.650, "lon":   69.670, "elev": 5},
"42867": {"id": "VANP", "name": "NAGPUR SONEGAON AFB", "state": "IN", "lat":  21.100, "lon":   79.050, "elev": 310},
"42874": {"id": "", "name": "PBO RAIPUR", "state": "IN", "lat":  21.220, "lon":   81.670, "elev": 298},
"42886": {"id": "", "name": "JHARSUGUDA", "state": "IN", "lat":  21.910, "lon":   84.080, "elev": 230},
"42895": {"id": "", "name": "BALASORE", "state": "IN", "lat":  21.500, "lon":   86.930, "elev": 20},
"42909": {"id": "", "name": "VERAVAL", "state": "IN", "lat":  20.900, "lon":   70.370, "elev": 8},
"42931": {"id": "", "name": "BULDANA", "state": "IN", "lat":  20.530, "lon":   76.230, "elev": 650},
"42970": {"id": "", "name": "CUTTACK", "state": "IN", "lat":  20.470, "lon":   85.930, "elev": 27},
"42971": {"id": "VEBS", "name": "BHUBANESWAR", "state": "IN", "lat":  20.250, "lon":   85.830, "elev": 46},
"42977": {"id": "", "name": "SANDHEADS", "state": "IN", "lat":  20.850, "lon":   88.250, "elev": 10},
"43003": {"id": "VABB", "name": "BOMBAY/SANTACRUZ", "state": "IN", "lat":  19.120, "lon":   72.850, "elev": 14},
"43013": {"id": "", "name": "AURANGABAD", "state": "IN", "lat":  19.880, "lon":   75.330, "elev": 581},
"43014": {"id": "VAAU", "name": "AURANGABAD AIRPORT", "state": "IN", "lat":  19.850, "lon":   75.400, "elev": 579},
"43017": {"id": "", "name": "PARBHANI", "state": "IN", "lat":  19.270, "lon":   76.770, "elev": 423},
"43041": {"id": "", "name": "JAGDALPUR", "state": "IN", "lat":  19.080, "lon":   82.030, "elev": 553},
"43049": {"id": "", "name": "GOPALPUR", "state": "IN", "lat":  19.260, "lon":   84.880, "elev": 17},
"43063": {"id": "", "name": "POONA", "state": "IN", "lat":  18.530, "lon":   73.850, "elev": 559},
"43083": {"id": "", "name": "MEDAK", "state": "IN", "lat":  18.050, "lon":   78.270, "elev": 472},
"43110": {"id": "", "name": "RATNAGIRI", "state": "IN", "lat":  16.980, "lon":   73.330, "elev": 34},
"43121": {"id": "", "name": "GULBARGA", "state": "IN", "lat":  17.350, "lon":   76.850, "elev": 458},
"43128": {"id": "VOHY", "name": "HYDERABAD (CIV/MIL)", "state": "IN", "lat":  17.450, "lon":   78.470, "elev": 545},
"43150": {"id": "", "name": "VISHAKHAPATNAM/WALT", "state": "IN", "lat":  17.700, "lon":   83.300, "elev": 66},
"43158": {"id": "", "name": "SANGLI", "state": "IN", "lat":  16.850, "lon":   74.600, "elev": 549},
"43182": {"id": "", "name": "NANDIGAMA", "state": "IN", "lat":  16.780, "lon":   80.280, "elev": 51},
"43185": {"id": "", "name": "MACHILIPATNAM", "state": "IN", "lat":  16.200, "lon":   81.150, "elev": 3},
"43189": {"id": "", "name": "KAKINADA", "state": "IN", "lat":  16.950, "lon":   82.230, "elev": 8},
"43192": {"id": "", "name": "GOA/PANJIM", "state": "IN", "lat":  15.480, "lon":   73.820, "elev": 60},
"43194": {"id": "", "name": "GOA/DABOLIM AIRPORT", "state": "IN", "lat":  15.380, "lon":   73.820, "elev": 52},
"43198": {"id": "VABM", "name": "BELGAUM/SAMBRA", "state": "IN", "lat":  15.850, "lon":   74.620, "elev": 747},
"43201": {"id": "", "name": "GADAG", "state": "IN", "lat":  15.420, "lon":   75.630, "elev": 650},
"43205": {"id": "VOBI", "name": "BELLARY", "state": "IN", "lat":  15.150, "lon":   76.850, "elev": 449},
"43237": {"id": "", "name": "ANANTAPUR", "state": "IN", "lat":  14.680, "lon":   77.620, "elev": 350},
"43257": {"id": "", "name": "AGUMBE", "state": "IN", "lat":  13.500, "lon":   75.080, "elev": 659},
"43275": {"id": "", "name": "TIRUPATHI", "state": "IN", "lat":  13.670, "lon":   79.580, "elev": 105},
"43279": {"id": "VOMM", "name": "MADRAS/MINAMBAKKAM", "state": "IN", "lat":  13.000, "lon":   80.180, "elev": 16},
"43285": {"id": "", "name": "MANGALORE/PANAMBUR", "state": "IN", "lat":  12.950, "lon":   74.830, "elev": 31},
"43289": {"id": "", "name": "MANDYA", "state": "IN", "lat":  12.500, "lon":   76.830, "elev": 695},
"43295": {"id": "", "name": "BANGALORE", "state": "IN", "lat":  12.970, "lon":   77.580, "elev": 921},
"43296": {"id": "", "name": "BANGALORE AERO", "state": "IN", "lat":  12.950, "lon":   77.630, "elev": 897},
"43299": {"id": "", "name": "KOLAR GOLD FIELD", "state": "IN", "lat":  12.950, "lon":   78.300, "elev": 882},
"43310": {"id": "", "name": "LONG ISLAND", "state": "IN", "lat":  12.420, "lon":   92.930, "elev": 25},
"43311": {"id": "", "name": "AMINI DIVI", "state": "IN", "lat":  11.120, "lon":   72.730, "elev": 4},
"43312": {"id": "", "name": "AGATTI", "state": "IN", "lat":  10.850, "lon":   72.470, "elev": 4},
"43316": {"id": "", "name": "NILAMBUR", "state": "IN", "lat":  11.280, "lon":   76.230, "elev": 31},
"43319": {"id": "", "name": "COIMBATURE", "state": "IN", "lat":  11.000, "lon":   76.970, "elev": 409},
"43321": {"id": "VOCB", "name": "COIMBATORE/PEEL", "state": "IN", "lat":  11.030, "lon":   77.050, "elev": 399},
"43330": {"id": "", "name": "THANJAVUR", "state": "IN", "lat":  10.780, "lon":   79.130, "elev": 68},
"43333": {"id": "VEPB", "name": "PORT BLAIR", "state": "IN", "lat":  11.670, "lon":   92.720, "elev": 79},
"43344": {"id": "", "name": "TIRUCHIRAPALLI", "state": "IN", "lat":  10.760, "lon":   78.710, "elev": 88},
"43346": {"id": "", "name": "KARAIKAL", "state": "IN", "lat":  10.920, "lon":   79.830, "elev": 7},
"43349": {"id": "", "name": "VEDARANNIYAM", "state": "IN", "lat":  10.370, "lon":   79.850, "elev": 2},
"43353": {"id": "VOCC", "name": "COCHIN (IN-NAVY)", "state": "IN", "lat":   9.950, "lon":   76.270, "elev": 3},
"43359": {"id": "", "name": "MADURAI", "state": "IN", "lat":   9.920, "lon":   78.120, "elev": 132},
"43368": {"id": "", "name": "CAR NICOBAR", "state": "IN", "lat":   9.150, "lon":   92.820, "elev": 14},
"43369": {"id": "", "name": "MINICOY ISLAND", "state": "IN", "lat":   8.300, "lon":   73.150, "elev": 2},
"43371": {"id": "", "name": "THIRUVANANTHAPURAM", "state": "IN", "lat":   8.480, "lon":   76.950, "elev": 64},
"43377": {"id": "", "name": "KANNIYAKUMARI", "state": "IN", "lat":   8.080, "lon":   77.500, "elev": 37},
"43413": {"id": "", "name": "MANNAR", "state": "SB", "lat":   8.980, "lon":   79.920, "elev": 3},
"43418": {"id": "", "name": "TRINCOMALEE", "state": "SB", "lat":   8.580, "lon":   81.250, "elev": 7},
"43424": {"id": "", "name": "PUTTALAM", "state": "SB", "lat":   8.030, "lon":   79.830, "elev": 2},
"43466": {"id": "", "name": "COLOMBO", "state": "SB", "lat":   6.900, "lon":   79.870, "elev": 7},
"43497": {"id": "", "name": "HAMBANTOTA", "state": "SB", "lat":   6.120, "lon":   81.130, "elev": 20},
"43555": {"id": "", "name": "MALE", "state": "MD", "lat":   4.200, "lon":   73.530, "elev": 2},
"43599": {"id": "", "name": "GAN", "state": "MD", "lat":   0.680, "lon":   73.150, "elev": 2},
"44212": {"id": "", "name": "ULAN-GOM", "state": "MO", "lat":  49.970, "lon":   92.080, "elev": 936},
"44218": {"id": "", "name": "KOHO HOVDO", "state": "MO", "lat":  48.020, "lon":   91.650, "elev": 1406},
"44231": {"id": "", "name": "MUREN", "state": "MO", "lat":  49.630, "lon":  100.170, "elev": 1288},
"44232": {"id": "", "name": "HUTAG", "state": "MO", "lat":  49.380, "lon":  102.700, "elev": 949},
"44237": {"id": "", "name": "ERDENEMANDAL", "state": "MO", "lat":  48.530, "lon":  101.380, "elev": 1510},
"44259": {"id": "", "name": "CHOIBALSAN", "state": "MO", "lat":  48.070, "lon":  114.500, "elev": 756},
"44272": {"id": "", "name": "ULAN KOM", "state": "MO", "lat":  47.750, "lon":   96.850, "elev": 1753},
"44277": {"id": "", "name": "ALTAI", "state": "MO", "lat":  46.400, "lon":   96.250, "elev": 2147},
"44282": {"id": "", "name": "TSETSERLEG", "state": "MO", "lat":  47.450, "lon":  101.470, "elev": 1697},
"44287": {"id": "", "name": "BAIANHONGOR", "state": "MO", "lat":  46.130, "lon":  100.680, "elev": 1879},
"44288": {"id": "", "name": "ARBAIHER", "state": "MO", "lat":  46.270, "lon":  102.780, "elev": 1832},
"44292": {"id": "", "name": "ULAN-BATOR", "state": "MO", "lat":  47.930, "lon":  106.980, "elev": 1313},
"44298": {"id": "", "name": "CHOIR", "state": "MO", "lat":  46.450, "lon":  108.220, "elev": 1285},
"44341": {"id": "", "name": "MANDALGOVL", "state": "MO", "lat":  45.770, "lon":  106.280, "elev": 1397},
"44354": {"id": "", "name": "SAINSHAND", "state": "MO", "lat":  44.900, "lon":  110.120, "elev": 936},
"44373": {"id": "", "name": "DALANZADGAD", "state": "MO", "lat":  43.580, "lon":  104.420, "elev": 1470},
"44454": {"id": "VNKT", "name": "KATHMANDU INTL", "state": "NP", "lat":  27.700, "lon":   85.370, "elev": 1337},
"45004": {"id": "", "name": "KING'S PARK", "state": "HK", "lat":  22.320, "lon":  114.170, "elev": 66},
"46689": {"id": "", "name": "MATSU", "state": "TW", "lat":  26.170, "lon":  119.930, "elev": 91},
"46692": {"id": "", "name": "TAIBEI", "state": "TW", "lat":  25.030, "lon":  121.520, "elev": 9},
"46695": {"id": "", "name": "PENGJIA YU", "state": "TW", "lat":  25.630, "lon":  122.070, "elev": 102},
"46699": {"id": "", "name": "HUA-LIEN CITY", "state": "TW", "lat":  23.980, "lon":  121.600, "elev": 19},
"46734": {"id": "RCQC", "name": "MAKUNG AB", "state": "TW", "lat":  23.580, "lon":  119.620, "elev": 31},
"46736": {"id": "", "name": "KINMEN", "state": "TW", "lat":  24.430, "lon":  118.430, "elev": 12},
"46741": {"id": "", "name": "TAINAN", "state": "TW", "lat":  23.000, "lon":  120.220, "elev": 14},
"46746": {"id": "", "name": "CHIA-I", "state": "TW", "lat":  23.470, "lon":  120.380, "elev": 25},
"46747": {"id": "RCMJ", "name": "DONGGANG", "state": "TW", "lat":  22.470, "lon":  120.430, "elev": 8},
"46750": {"id": "", "name": "PINGTUNG SOUTH", "state": "TW", "lat":  22.670, "lon":  120.450, "elev": 24},
"46757": {"id": "", "name": "HSINCHU CITY", "state": "TW", "lat":  24.830, "lon":  120.000, "elev": 27},
"46763": {"id": "RCYU", "name": "JULIEN AB", "state": "TW", "lat":  24.030, "lon":  121.620, "elev": 16},
"46765": {"id": "", "name": "JOYUTANG", "state": "TW", "lat":  23.880, "lon":  120.850, "elev": 1015},
"46780": {"id": "", "name": "LU-TAO", "state": "TW", "lat":  22.680, "lon":  121.500, "elev": 280},
"46810": {"id": "RCLM", "name": "DONGSHA", "state": "TW", "lat":  20.670, "lon":  116.720, "elev": 6},
"46902": {"id": "", "name": "NENSHA ISLAND", "state": "TW", "lat":  10.380, "lon":  114.370, "elev": 5},
"47022": {"id": "", "name": "PUNGSAN", "state": "KR", "lat":  40.820, "lon":  128.150, "elev": 1206},
"47041": {"id": "", "name": "HAMHEUNG", "state": "KR", "lat":  39.930, "lon":  127.550, "elev": 38},
"47058": {"id": "ZKPY", "name": "PYONGYANG", "state": "KR", "lat":  39.030, "lon":  125.780, "elev": 38},
"47090": {"id": "", "name": "SOKCHO", "state": "KR", "lat":  38.150, "lon":  128.340, "elev": 19},
"47102": {"id": "", "name": "BAENGNYEONGDO", "state": "KO", "lat":  37.580, "lon":  124.380, "elev": 158},
"47103": {"id": "", "name": "PAENGNYONG-DO ISLAND", "state": "KO", "lat":  37.970, "lon":  124.670, "elev": 177},
"47104": {"id": "", "name": "BUKGANGNEUNG", "state": "KO", "lat":  37.830, "lon":  128.860, "elev": 79},
"47107": {"id": "", "name": "KANGNUNG AFB", "state": "KO", "lat":  37.750, "lon":  128.950, "elev": 6},
"47110": {"id": "", "name": "SEOUL/KIMPO", "state": "KO", "lat":  37.550, "lon":  126.800, "elev": 20},
"47112": {"id": "", "name": "INCHON", "state": "KO", "lat":  37.480, "lon":  126.630, "elev": 70},
"47114": {"id": "RKNW", "name": "WONJU", "state": "KO", "lat":  37.330, "lon":  127.950, "elev": 150},
"47118": {"id": "", "name": "HOENGSONG AFB", "state": "KO", "lat":  37.430, "lon":  127.950, "elev": 101},
"47122": {"id": "RKSO", "name": "OSAN (US/KOR-AFB)", "state": "KO", "lat":  37.100, "lon":  127.030, "elev": 12},
"47129": {"id": "", "name": "SOSAN", "state": "KO", "lat":  36.770, "lon":  126.470, "elev": 21},
"47130": {"id": "", "name": "ULCHIN", "state": "KO", "lat":  36.980, "lon":  129.420, "elev": 51},
"47132": {"id": "", "name": "TAEJON AFB", "state": "KO", "lat":  36.330, "lon":  127.380, "elev": 64},
"47134": {"id": "", "name": "YECHON", "state": "KO", "lat":  36.620, "lon":  128.350, "elev": 120},
"47135": {"id": "", "name": "CHUPUNGNYONG", "state": "KO", "lat":  36.220, "lon":  128.000, "elev": 249},
"47138": {"id": "", "name": "POHANG", "state": "KO", "lat":  36.030, "lon":  129.380, "elev": 6},
"47142": {"id": "", "name": "TAEGU", "state": "KO", "lat":  35.900, "lon":  128.650, "elev": 35},
"47144": {"id": "", "name": "KUNSAN RADAR", "state": "KO", "lat":  36.020, "lon":  126.780, "elev": 215},
"47153": {"id": "", "name": "PUSAN WEST", "state": "KO", "lat":  35.180, "lon":  128.930, "elev": 4},
"47158": {"id": "RKJJ", "name": "KWANGJU (KOR-AFB)", "state": "KO", "lat":  35.120, "lon":  126.820, "elev": 13},
"47161": {"id": "", "name": "SACHON", "state": "KO", "lat":  35.080, "lon":  128.080, "elev": 8},
"47169": {"id": "", "name": "HEUKSANDO", "state": "KO", "lat":  34.700, "lon":  125.400, "elev": 15},
"47170": {"id": "", "name": "WANDO ISLAND", "state": "KO", "lat":  34.300, "lon":  126.750, "elev": 12},
"47185": {"id": "", "name": "CHEJU", "state": "KO", "lat":  33.280, "lon":  126.170, "elev": 73},